numero,Nom_du_service,Identifiant_du_service,Courriel,Telephone,Adresse_postale,Adresse_du_service,Ville,Departement,Pays,Code_postal,Horaires_d_ouverture,Site_internet,Code_insee_commune,adresse_carte,Latitude,Longitude,Lien_FranceArchives,Categorie_de_service,Categorie,Service_de_rattachement
1,Agglomération de la Région de Compiègne et de la Basse Automne - Service des archives,,archives@agglo-compiegne.fr,03.44.86.28.10,,104 rue Georges Guynemer,Margny-lès-Compiègne,Oise,France,60280,Ma.-Je. 9h à 12h15 et 13h30 à 17h,http://archives.compiegne.fr/,60382,"104 rue Georges Guynemer,60280,Margny-lès-Compiègne",49.436234,2.803934,https://francearchives.fr/fr/annuaire/departements?dpt=60,C,Communes,
2,Agglomération du Pays de Dreux - Service des archives,,archivesagglo@dreux-agglomeration.fr,02.37.82.88.20,,"Médiathèque l'Odyssée, 1, place Mésirard",Dreux,Eure-et-Loir,France,28100,Ma.-Sa. 10h à 12h et 13h30 à 18h30 (17h30 le Sa.),,28134,"Médiathèque l'Odyssée, 1, place Mésirard,28100,Dreux",48.734653,1.363702,https://francearchives.fr/fr/annuaire/departements?dpt=28,C,Communes,
3,Antenne d'Olonne sur Mer,,david.rabiller@lessablesdolonne.fr,02.51.22.42.81,"CS 21842, 85108 Les Sables-d'Olonne","La Jarrie, 4 rue des Sables, Olonne-sur-Mer",Les Sables-d'Olonne,Vendée,France,85180,sur rendez-vous,,85194,"La Jarrie, 4 rue des Sables, Olonne-sur-Mer,85180,Les Sables-d'Olonne",46.50872,-1.765441,https://francearchives.fr/fr/annuaire/departements?dpt=85,C,Communes,Commune des Sables d'Olonne - Archives municipales et Documentation
4,Antenne du Château d'Olonne,,yanice.michaud@lessablesdolonne.fr,02.51.23.88.12,"CS 21842, 85118 Les Sables-d'Olonne.fr","53 rue Séraphin Buton, Le Château-d'Olonne",Les Sables-d'Olonne,Vendée,France,85180,sur rendez-vous,,85194,"53 rue Séraphin Buton, Le Château-d'Olonne,85180,Les Sables-d'Olonne",46.504593,-1.738948,https://francearchives.fr/fr/annuaire/departements?dpt=85,C,Communes,Commune des Sables d'Olonne - Archives municipales et Documentation
5,Archives Pumonti à Ajaccio,,archivii.pumonti@isula.corsica,04.95.29.14.26,,"rue François Pietri, Les Salines",Ajaccio,Corse,France,20090,,,2A004,"rue François Pietri, Les Salines,20090,Ajaccio",41.93506,8.74715,https://francearchives.fr/fr/annuaire/departements?dpt=2A,C,Communes,Direction des Archives
6,"Archives de la MEL, Métropole européenne de Lille",,archives@lillemetropole.fr,03.20.21.21.28,"CS 50749, 1 rue du Ballon, 59034 Lille Cedex",2 rue de l'Europe,Sequedin,Nord,France,59320,Sur rendez-vous,http://www.archives-lillemetropole.fr/,59566,"2 rue de l'Europe,59320,Sequedin",50.633389,2.980447,https://francearchives.fr/fr/annuaire/departements?dpt=59,C,Communes,
7,Archives intercommunales de Vichy Communauté - Archives municipales,,archives@vichy-communaute.fr,04.70.30.17.86,CS 92956 03209 VICHY Cedex,rue des Ecoles,Vichy,Allier,France,3200,Lu.-Ve. 8h30 à 12h et 13h30 à 16h30 (fermeture à 12h le mardi et le jeudi),https://www.ville-vichy.fr/votre-ville/services/archives-municipales,3310,"rue des Ecoles,03200,Vichy",46.124616,3.429252,https://francearchives.fr/fr/annuaire/departements?dpt=03,C,Communes,
8,Archives municipales d'Albertville,,archives@albertville.fr,04.79.10.43.27,"CS 60104, 73207 Albertville Cedex","Bâtiment La Poste, place du 11 novembre 1918",Albertville,Savoie,France,73200,Sur rendez-vous,,73011,"Bâtiment La Poste, place du 11 novembre 1918,73200,Albertville",45.676029,6.391987,https://francearchives.fr/fr/annuaire/departements?dpt=73,C,Communes,
9,Archives municipales de Bergerac,,egrandclaudon@bergerac.fr,24037,,"Musée du Tabac, place du Feu",Bergerac,Dordogne,France,24100,Lu.-Ve. 14h à 18h et sur rendez-vous,,24037,"Musée du Tabac, place du Feu,24100,Bergerac",,,https://francearchives.fr/fr/annuaire/departements?dpt=24,C,Communes,
10,Archives municipales de Bourg-Saint-Maurice Les Arcs,,p.vidonne@bourgsaintmaurice.fr,04.79.07.72.10,"Mairie, CS 20008, 73704 Bourg-Saint-Maurice-Les-Arcs Cedex",Place Gaymard,Bourg-Saint-Maurice-Les-Arcs,Savoie,France,73700,Lu.-Ve. 9h à 12h et 13h30 à 17h,,73054,"Place Gaymard,73700,Bourg-Saint-Maurice-Les-Arcs",45.618429,6.769325,https://francearchives.fr/fr/annuaire/departements?dpt=73,C,Communes,
11,Archives municipales de Cernay - Archives municipales,,elodie.francois@ville-cernay.fr,03.89.75.54.10,,"Mairie, 26 rue James Barbier",Cernay,Collectivité européenne d’Alsace,France,68700,Lu.-Me. sur rendez-vous,,68063,"Mairie, 26 rue James Barbier,68700,Cernay",47.808622,7.178549,https://francearchives.fr/fr/annuaire/departements?dpt=68,C,Communes,
12,Archives municipales de Chambéry,,archives.municipales@mairie-chambery.fr,04.79.62.74.81,"Hôtel de ville, BP 1105, 73011 Chambéry Cedex",5 rue Ronde,Chambéry,Savoie,France,73000,Lu./Je. 8h30 à 17h / Ma. 13h à 17h sur rendez-vous les autres jours,,73065,"5 rue Ronde,73000,Chambéry",45.568844,5.910939,https://francearchives.fr/fr/annuaire/departements?dpt=73,C,Communes,
13,Archives municipales de Tignes,,parnaud@tignes.net,04.79.40.06.51,"Mairie, BP 50, 73321 Tignes Cedex","Mairie, Montée du Rosset",Tignes,Savoie,France,73320,sur rendez-vous,,73296,"Montée du Rosset,73320,Tignes",,,https://francearchives.fr/fr/annuaire/departements?dpt=73,C,Communes,
14,Archives municipales de Troyes,,archives@ville-troyes.fr,03.25.42.34.35,"Hôtel de ville, BP 767, 10026 Troyes Cedex","Hôtel de ville, place Alexandre Israël",Troyes,Aube,France,10000,Lu.-Ve. 8h30-12h et 13h30-17h30,https://www.ville-troyes.fr/sortir-bouger/archives-municipales/,10387,"Hôtel de ville, place Alexandre Israël,10000,Troyes",48.297167,4.07402,https://francearchives.fr/fr/annuaire/departements?dpt=10,C,Communes,
15,Archives municipales et communautaires d'Evron-Coëvrons,,edupleix@coevrons.fr,06.73.85.17.00,,"Mairie, 4 rue Hertford",Evron,Mayenne,France,53600,sur rendez-vous,,53097,"Mairie, 4 rue Hertford,53600,Evron",48.156399,-0.400835,https://francearchives.fr/fr/annuaire/departements?dpt=53,C,Communes,
16,Archives municipales et communautaires de Laval,,archives@laval.fr,02.43.49.85.81,"CS 71327, 53013 Laval Cedex",1 rue Prosper Brou,Laval,Mayenne,France,53000,Me. 9h à 12h et 14h à 17h / Je.-Ve. 14h à 17h,https://archives.laval.fr/,53130,"1 rue Prosper Brou,53000,Laval",48.076959,-0.765296,https://francearchives.fr/fr/annuaire/departements?dpt=53,C,Communes,
17,Carcassonne Agglomération - Service des archives,,patrice.olivan-jarque@carcassonne-agglo.fr,04.68.10.56.00,,1 rue Pierre Germain,Carcassonne,Aude,France,11000,Lu.-Ve. 8h à 12h30 et 13h30 à 18h (17h le Ve.),,11069,"1 rue Pierre Germain,11000,Carcassonne",43.212966,2.357944,https://francearchives.fr/fr/annuaire/departements?dpt=11,C,Communes,
18,Centre de gestion de la Grande Couronne de la Région Ile-de-France - Service des archives,,archives@cigversailles.fr,01.39.49.63.24,,15 rue Boileau,Versailles,Yvelines,France,78000,fermé au public,http://www.cigversailles.fr/,78646,"15 rue Boileau,78000,Versailles",48.795327,2.147159,https://francearchives.fr/fr/annuaire/departements?dpt=78,C,Communes,
19,Centre de gestion de la fonction publique territoriale - Mission Archives,,archives.rp@cdg08.fr,03.24.33.88.00,,1 boulevard Louis Aragon,Charleville-Mézières,Ardennes,France,8000,Lu.-Ve. 9h à 11h45 et 13h45 à 16h45,https://www.cdg08.fr/,8105,"1 boulevard Louis Aragon,08000,Charleville-Mézières",49.739786,4.723175,https://francearchives.fr/fr/annuaire/departements?dpt=08,C,Communes,
20,Centre de gestion de la fonction publique territoriale - Service des archives,,archiviste@cdg70.fr,03.84.97.02.40,,27 avenue Aristide Briand,Vesoul,Haute-Saône,France,70000,,,70550,"27 avenue Aristide Briand,70000,Vesoul",47.623292,6.162171,https://francearchives.fr/fr/annuaire/departements?dpt=70,C,Communes,
21,Centre de gestion de la fonction publique territoriale de Loire-Atlantique - Service Archives,,archives@cdg44.fr,02.40.20.00.71,,6 rue du Pen Duick II,Nantes,Loire-Atlantique,France,44200,,,44109,"6 rue du Pen Duick II,44200,Nantes",47.211152,-1.529489,https://francearchives.fr/fr/annuaire/departements?dpt=44,C,Communes,
22,Centre de gestion de la fonction publique territoriale de Savoie,,archives@cdg73.fr,04.79.70.22.52,,"Parc d'activités Alpespace - Bâtiment CERES, 113 voie Albert Einstein",Francin,Savoie,France,73800,,,73118,"Parc d'activités Alpespace - Bâtiment CERES, 113 voie Albert Einstein,73800,Francin",45.479065,6.031065,https://francearchives.fr/fr/annuaire/departements?dpt=73,C,Communes,
23,Centre de gestion de la fonction publique territoriale de Saône-et-Loire - Service des archives,,archives@cdg71.fr,03.85.21.19.19,,6 rue de Flacé,Mâcon,Saône-et-Loire,France,71000,,,71270,"6 rue de Flacé,71000,Mâcon",46.310595,4.834936,https://francearchives.fr/fr/annuaire/departements?dpt=71,C,Communes,
24,"Centre de gestion de la fonction publique territoriale de Seine-Maritime - Service ""Archives"" à destination des collectivités territoriales",,archives@cdg76.fr,06.28.42.09.64,,40 allée de la Ronce,Isneauville,Seine-Maritime,France,76230,,,76377,"40 allée de la Ronce,76230,Isneauville",49.495124,1.139409,https://francearchives.fr/fr/annuaire/departements?dpt=76,C,Communes,
25,Centre de gestion de la fonction publique territoriale de Seine-et-Marne - Service d'archives itinérant,,t.roquincourt.archiviste@cdg77.fr,06.08.69.21.26,,10 Points de Vue,Lieusaint,Seine-et-Marne,France,77127,,http://www.cdg77.fr/,77251,"10 Points de Vue,77127,Lieusaint",48.618146,2.538663,https://francearchives.fr/fr/annuaire/departements?dpt=77,C,Communes,
26,Centre de gestion de la fonction publique territoriale de Vaucluse - Service archives,,f.elfrodi@cdg84.fr,04.32.44.89.30,"CS 60508, Avignon Cedex 9","80 rue Marcel Demonque, Agroparc",Avignon,Vaucluse,France,84000,,http://www.cdg84.fr,84007,"80 rue Marcel Demonque, Agroparc,84000,Avignon",43.913923,4.887463,https://francearchives.fr/fr/annuaire/departements?dpt=84,C,Communes,
27,Centre de gestion de la fonction publique territoriale de l'Ain - Service des archives,,archives@cdg01.fr,04.74.32.13.86,,145 chemin de Bellevue,Péronnas,Ain,France,1960,,http://www.archives-communales-ain.fr,1289,"145 chemin de Bellevue,01960,Péronnas",46.18164,5.206645,https://francearchives.fr/fr/annuaire/departements?dpt=01,C,Communes,
28,Centre de gestion de la fonction publique territoriale de l'Aisne - Mission archives,,cbuart@cdg02.fr,03.23.52.01.52,,14 rue Lucien Quittelier,Chauny,Aisne,France,2300,,http://www.cdg02.fr,2173,"14 rue Lucien Quittelier,02300,Chauny",49.624764,3.221747,https://francearchives.fr/fr/annuaire/departements?dpt=02,C,Communes,
29,Centre de gestion de la fonction publique territoriale de l'Eure - Service des archivistes itinérants,,archives@cdg27.fr,02.32.39.25.08,"BP 276, 27002 Evreux Cedex",10 bis rue du Docteur Michel Baudoux,Evreux,Eure,France,27000,,,27229,"10 bis rue du Docteur Michel Baudoux,27000,Evreux",49.038273,1.140402,https://francearchives.fr/fr/annuaire/departements?dpt=27,C,Communes,
30,Centre de gestion de la fonction publique territoriale de l'Hérault - Mission archives CDG 34,,missionarchives@cdg34.fr,04.67.04.38.80,,254 rue Michel Teule,Montpellier,Hérault,France,34184,,https://www.cdg34.fr/page/mission-archives-cdg-34-0#.V30XkqLrDF8,34172,"254 rue Michel Teule,34184,Montpellier",43.62521,3.838501,https://francearchives.fr/fr/annuaire/departements?dpt=34,C,Communes,
31,Centre de gestion de la fonction publique territoriale de l'Indre - Service des archives,,e.bonnafoux@cdg36.fr,02.54.34.18.20,,21 rue Bourdillon,Châteauroux,Indre,France,36000,,,36044,"21 rue Bourdillon,36000,Châteauroux",46.808727,1.696455,https://francearchives.fr/fr/annuaire/departements?dpt=36,C,Communes,
32,Centre de gestion de la fonction publique territoriale de l'Isère - Service archives itinérantes,,nngonika@cdg38.fr,04.76.33.20.33,"CS 50097, 38401 Saint-Martin d'Hères",416 rue des Universités,Saint-Martin-d'Hères,Isère,France,38400,,,38421,"416 rue des Universités,38400,Saint-Martin-d'Hères",45.187798,5.769429,https://francearchives.fr/fr/annuaire/departements?dpt=38,C,Communes,
33,Centre de gestion de la fonction publique territoriale de l'Oise - Service Archives,,archives@cdg60.com,03.44.06.22.60,,2 rue Jean Monnet,Beauvais,Oise,France,60000,Lu.-Ve. 8h30 à 12h et 13h30 à 17h,,60057,"2 rue Jean Monnet,60000,Beauvais",49.444405,2.102369,https://francearchives.fr/fr/annuaire/departements?dpt=60,C,Communes,
34,Centre de gestion de la fonction publique territoriale de l'Yonne - Mission archives,,archives@cdg89.fr,03.86.51.43.43,"BP 86, 89011 Auxerre Cedex",47 rue Théodore-de-Bèze,Auxerre,Yonne,France,89000,,,89024,"47 rue Théodore-de-Bèze,89000,Auxerre",47.792472,3.555174,https://francearchives.fr/fr/annuaire/departements?dpt=89,C,Communes,
35,Centre de gestion de la fonction publique territoriale de la Côte d'Or - S.O.S. Archives,,archives@cdg21.fr,03.80.76.99.76,"CS 70566, 21005 Dijon Cedex",16-18 rue Nodot,Dijon,Côtes-d’Or,France,21000,,,21231,"16-18 rue Nodot,21000,Dijon",47.320824,5.025175,https://francearchives.fr/fr/annuaire/departements?dpt=21,C,Communes,
36,Centre de gestion de la fonction publique territoriale de la Dordogne - Service des archives,,archives@cdg24.fr,05.53.02.87.21,"BP 108, 24051 Perigueux Cedex 09","Maison des communes, 1 boulevard de Saltgourde",Marsac sur l'Isle,Dordogne,France,24430,,,24256,"Maison des communes, 1 boulevard de Saltgourde,24430,Marsac sur l'Isle",45.199803,0.670866,https://francearchives.fr/fr/annuaire/departements?dpt=24,C,Communes,
37,Centre de gestion de la fonction publique territoriale de la Drôme - Service des archives,,emmanuelle.chazalon@cdg26.fr,04.75.82.01.30,"BP 1112, 26011 Valence Cedex","Allée André Revol, Bourg-Les-Valence",Valence,Drôme,France,26000,,,26362,"Allée André Revol, Bourg-Les-Valence,26000,Valence",44.938594,4.924402,https://francearchives.fr/fr/annuaire/departements?dpt=26,C,Communes,
38,Centre de gestion de la fonction publique territoriale de la Gironde - Service d'accompagnement à la gestion des archives,,archives@cdg33.fr,05.56.11.16.45,,"25 rue du Cardinal Richaud, immeuble Horiopolis",Bordeaux,Gironde,France,33000,,,33063,"25 rue du Cardinal Richaud, immeuble Horiopolis,33000,Bordeaux",44.886959,-0.564629,https://francearchives.fr/fr/annuaire/departements?dpt=33,C,Communes,
39,Centre de gestion de la fonction publique territoriale de la Haute-Loire - Service des archives,,archives43@cdg43.fr,04.71.05.37.20,,"46, avenue de la Mairie",Espaly-Saint-Marcel,Haute-Loire,France,43000,sur rendez-vous,,43089,"46, avenue de la Mairie,43000,Espaly-Saint-Marcel",45.045511,3.868287,https://francearchives.fr/fr/annuaire/departements?dpt=43,C,Communes,
40,Centre de gestion de la fonction publique territoriale de la Haute-Savoie - Service des archivistes intercommunaux,,cdg74@cdg74.fr,04.50.51.98.55,"CS 30138, Seynod 74600 Annecy",55 rue du Val Vert,Annecy,Haute-Savoie,France,74600,,,74010,"55 rue du Val Vert,74600,Annecy",45.889918,6.109424,https://francearchives.fr/fr/annuaire/departements?dpt=74,C,Communes,
41,Centre de gestion de la fonction publique territoriale de la Loire - Service des archives,,archivescdg42@cdg42.org,04.77.42.67.20,,24 rue d'Arcole,Saint-Etienne,Loire,France,42000,sur rendez-vous,,42218,"24 rue d'Arcole,42000,Saint-Etienne",45.440253,4.38307,https://francearchives.fr/fr/annuaire/departements?dpt=42,C,Communes,
42,Centre de gestion de la fonction publique territoriale de la Lozère - Service des archives itinérantes,,b.legeay@cdg48.fr,04.66.65.30.03,,11 boulevard des Capucins,Mende,Lozère,France,48000,,,48095,"11 boulevard des Capucins,48000,Mende",44.520308,3.497904,https://francearchives.fr/fr/annuaire/departements?dpt=48,C,Communes,
43,Centre de gestion de la fonction publique territoriale de la Manche - Service d'aide à l'archivage,,archives@cdg50.fr,02.33.77.89.00,"CS 12309, 50009 Saint-Lô Cedex",139 rue Guillaume Fouace,Saint-Lô,Manche,France,50000,,,50502,"139 rue Guillaume Fouace,50000,Saint-Lô",49.100368,-1.084019,https://francearchives.fr/fr/annuaire/departements?dpt=50,C,Communes,
44,Centre de gestion de la fonction publique territoriale de la Mayenne - Service des archives,,archiviste.cdg53@yahoo.fr,02.43.59.09.09,,"Parc Tertiaire Cérès, 21 rue Ferdinand Buisson",Changé,Mayenne,France,53810,,,53054,"Parc Tertiaire Cérès, 21 rue Ferdinand Buisson,53810,Changé",48.093009,-0.760991,https://francearchives.fr/fr/annuaire/departements?dpt=53,C,Communes,
45,Centre de gestion de la fonction publique territoriale de la Meuse,,archives@cdg55.fr,03.29.91.44.35,"BP 90054, 55202 Commercy Cedex",92 rue des Capucins,Commercy,Meuse,France,55200,,,55122,"92 rue des Capucins,55200,Commercy",48.758571,5.595543,https://francearchives.fr/fr/annuaire/departements?dpt=55,C,Communes,
46,Centre de gestion de la fonction publique territoriale de la Vendée - Service Conseil Archives,,conseil.archives@cdg85.fr,02.51.44.10.24,"CS 60239, 85006 La Roche-sur-Yon Cedex",65 rue Klépler,La Roche-sur-Yon,Vendée,France,85000,,,85191,"65 rue Klépler,85000,La Roche-sur-Yon",46.671368,-1.399626,https://francearchives.fr/fr/annuaire/departements?dpt=85,C,Communes,
47,Centre de gestion de la fonction publique territoriale de la Vienne - Service des archives,,archiviste@cdg86.fr,05.49.49.12.10,"C.S. 20205, 86962 Futuroscope Cedex","Téléport 1, avenue du Futuroscope / Arobase 1",Chasseneuil-du-poitou,Vienne,France,86360,sur rendez-vous,,86062,"Téléport 1, avenue du Futuroscope / Arobase 1,86360,Chasseneuil-du-poitou",46.659352,0.362206,https://francearchives.fr/fr/annuaire/departements?dpt=86,C,Communes,
48,Centre de gestion de la fonction publique territoriale des Alpes-Maritimes - Service d'aide à l'archivage,,archives@cdg06.fr,04.92.27.34.34,,33 avenue Henri Lantelme,Saint-Laurent-du-Var,Alpes-Maritimes,France,6700,,http://cdg06.fr/modules/news/article.php?storyid=127,,"33 avenue Henri Lantelme,06700,Saint-Laurent-du-Var",43.660916,7.195392,https://francearchives.fr/fr/annuaire/departements?dpt=06,C,Communes,
49,Centre de gestion de la fonction publique territoriale des Alpes-de-Haute-Provence - Service archives,,archives@cdg04.fr,06.67.98.02.35,"Chemin  du Font de Lagier, BP 9, 04130 Volx",2 rue du Trélus,Digne-les-Bains,Alpes-de-Haute-Provence,France,4000,,http://www.cdg04.fr/cdg04.asp?IdPage=3954,4070,"2 rue du Trélus,04000,Digne-les-Bains",44.090125,6.238835,https://francearchives.fr/fr/annuaire/departements?dpt=04,C,Communes,
50,Centre de gestion de la fonction publique territoriale des Bouches-du-Rhône - Service archives,,archives@cdg13.com,04.42.54.40.50,"CS 10439, 13090 Aix-en-Provence Cedex 02",15 boulevard de la Grande Thumine,Aix-en-Provence,Bouches-du-Rhône,France,13090,,http://www.cdg13.com/,13001,"15 boulevard de la Grande Thumine,13090,Aix-en-Provence",43.525791,5.411296,https://francearchives.fr/fr/annuaire/departements?dpt=13,C,Communes,
51,"Centre de gestion de la fonction publique territoriale des Côtes-d'Armor - Unité ""Archives Assistance""",,archives@cdg22.fr,02.96.58.64.00,,1 rue Pierre et Marie Curie,Plérin,Côtes-d’Armor,France,22190,,,22187,"1 rue Pierre et Marie Curie,22190,Plérin",48.548019,-2.793948,https://francearchives.fr/fr/annuaire/departements?dpt=22,C,Communes,
52,Centre de gestion de la fonction publique territoriale des Hautes-Alpes - Service des archives,,archives@cdg05.fr,04.92.53.29.10,,1 rue des Marronniers,Gap,Hautes-Alpes,France,5000,,http://www.cdg05.fr/archives.php,5061,"1 rue des Marronniers,05000,Gap",44.544287,6.064508,https://francearchives.fr/fr/annuaire/departements?dpt=05,C,Communes,
53,Centre de gestion de la fonction publique territoriale des Hautes-Pyrénées - Service des archives,,cdg65@cdg65.fr,05.62.38.92.50,,13 rue Emile Zola,Séméac,Hautes-Pyrénées,France,65600,,,65417,"13 rue Emile Zola,65600,Séméac",43.232155,0.101819,https://francearchives.fr/fr/annuaire/departements?dpt=65,C,Communes,
54,Centre de gestion de la fonction publique territoriale des Landes - Service des archives,,archives@cdg40.fr,05.58.85.80.14,,175 place de la Caserne Bosquet,Mont-de-Marsan,Landes,France,40000,,,40192,"175 place de la Caserne Bosquet,40000,Mont-de-Marsan",43.896897,-0.493175,https://francearchives.fr/fr/annuaire/departements?dpt=40,C,Communes,
55,Centre de gestion de la fonction publique territoriale des Pyrénées-Atlantiques - Service Archives,,archives@cdg-64.fr,05.59.84.40.40,"Maison des Communes, Cité administrative, CS 40609, 64006 Pau Cedex",rue Auguste Renoir,Pau,Pyrénées-Atlantique,France,64000,,,64445,"rue Auguste Renoir,64000,Pau",43.310079,-0.358881,https://francearchives.fr/fr/annuaire/departements?dpt=64,C,Communes,
56,Centre de gestion de la fonction publique territoriale des Vosges - Service d'archivage itinérant,,cgoutanier@cdg88.fr,03.54.04.60.23,,59 rue Jean Jaurès,Epinal,Vosges,France,88000,,http://www.cdg88.fr/index.php?option=com_content&view=article&id=55&Itemid=27,88160,"59 rue Jean Jaurès,88000,Epinal",48.182191,6.438332,https://francearchives.fr/fr/annuaire/departements?dpt=88,C,Communes,
57,Centre de gestion de la fonction publique territoriale du Bas-Rhin - Service des archivistes itinérants,,archivistes@cdg67.fr,06.26.20.08.66,"CS 70071, 67382 Lingolsheim Cedex",12 avenue Schuman,Lingolsheim,Collectivité européenne d’Alsace,France,67380,,,67267,"12 avenue Schuman,67380,Lingolsheim",48.558537,7.692575,https://francearchives.fr/fr/annuaire/departements?dpt=67,C,Communes,
58,Centre de gestion de la fonction publique territoriale du Calvados - Service des archives,,archiviste@cdg14.fr,02.31.15.50.20,,2 impasse Initialis,Hérouville Saint Clair,Calvados,France,14200,,http://www.cdg14.fr/fr/archives/contexte-reglementaire/default.asp,14327,"2 impasse Initialis,14200,Hérouville Saint Clair",49.219097,-0.356054,https://francearchives.fr/fr/annuaire/departements?dpt=14,C,Communes,
59,Centre de gestion de la fonction publique territoriale du Finistère - Service des Archives,,archives@cdg29.bzh,02.98.64.11.30,,7 boulevard du Finistère,Quimper,Finistère,France,29000,,,29232,"7 boulevard du Finistère,29000,Quimper",48.014979,-4.090513,https://francearchives.fr/fr/annuaire/departements?dpt=29,C,Communes,
60,Centre de gestion de la fonction publique territoriale du Haut-Rhin - Service intercommunal d'archives,,archivistes@cdg68.fr,03.89.20.36.00,,22 rue Wilson,Colmar,Collectivité européenne d’Alsace,France,68000,,,68066,"22 rue Wilson,68000,Colmar",48.069257,7.346465,https://francearchives.fr/fr/annuaire/departements?dpt=68,C,Communes,
61,Centre de gestion de la fonction publique territoriale du Jura - Service des archives,,archives@cdgjura.fr,03.84.53.06.39,"CS 50086, 39303 Champagnole Cedex",3 rue Victor Bérard,Champagnole,Jura,France,39300,,,39097,"3 rue Victor Bérard,39300,Champagnole",46.748793,5.90155,https://francearchives.fr/fr/annuaire/departements?dpt=39,C,Communes,
62,Centre de gestion de la fonction publique territoriale du Lot - Service des archives,,archives@cdg46.fr,05.65.23.00.95,,12 avenue Charles Pillat,Pradines,Lot,France,46090,,,46224,"12 avenue Charles Pillat,46090,Pradines",44.465729,1.414343,https://francearchives.fr/fr/annuaire/departements?dpt=46,C,Communes,
63,"Centre de gestion de la fonction publique territoriale du Nord - Service ""Archives""",,archives@cdg59.fr,03.59.56.88.59,"CS 71222, 59014 Lille Cedex",14 rue Jeanne Maillotte,Lille,Nord,France,59800,,http://www.cdg59.fr/conseil/archivage/,59350,"14 rue Jeanne Maillotte,59800,Lille",50.63169,3.063379,https://francearchives.fr/fr/annuaire/departements?dpt=59,C,Communes,
64,Centre de gestion de la fonction publique territoriale du Puy-de-Dôme - Service Archives,,catherine.luneau@cdg63.fr,04.73.28.59.80,"CS 70007, 63063 Clermond-Ferrand Cedex 1",7 rue Condorcet,Clermont-Ferrand,Puy-de-Dôme,France,63100,,,63113,"7 rue Condorcet,63100,Clermont-Ferrand",45.765688,3.132981,https://francearchives.fr/fr/annuaire/departements?dpt=63,C,Communes,
65,Centre de gestion de la fonction publique territoriale du Rhône - Service documentation et archives,,archives@cdg69.fr,04.72.38.49.50,,9 allée Alban Vistel,Sainte Foy-lès-Lyon,Rhône,France,69110,,,69202,"9 allée Alban Vistel,69110,Sainte Foy-lès-Lyon",45.734072,4.788884,https://francearchives.fr/fr/annuaire/departements?dpt=69,C,Communes,
66,Centre de gestion de la fonction publique territoriale du Territoire de Belfort - Service d'archives itinérant,,cmougin@cdg90.fr,03.84.57.65.77,"CS 40322, 90006 Belfort Cedex",29 boulevard Anatole France,Belfort,Territoire de Belfort,France,90000,,,90010,"29 boulevard Anatole France,90000,Belfort",47.637357,6.838736,https://francearchives.fr/fr/annuaire/departements?dpt=90,C,Communes,
67,Centre de gestion de la fonction publique territoriale du Var,,archives@cdg83.fr,04.94.00.09.20,"CS 70576, 83041 Toulon Cedex 9",860 route des Avocats,La Crau,Var,France,83260,,http://www.cdg83.fr/,83047,"860 route des Avocats,83260,La Crau",43.131272,6.077271,https://francearchives.fr/fr/annuaire/departements?dpt=83,C,Communes,
68,Centre de gestion de la fonction publique territoriale de l'Aube - Service des archives,,archives@cdg10.fr,03.25.73.58.01,"BP 40085 - Sainte-Savine, 10602 La Chapelle Saint-Luc Cedex","Parc du Grand Troyes, 2 rond-point Winston Churchill",Sainte-Savine,Aube,France,10300,,,10362,"Parc du Grand Troyes, 2 rond-point Winston Churchill,10300,Sainte-Savine",48.293895,4.012882,https://francearchives.fr/fr/annuaire/departements?dpt=10,C,Communes,
69,Communauté Intercommunale des Villes Solidaires (CIVIS) - Service des archives et de la documentation,,documentation@civis.re,0262.49.96.00,,29 route de l'Entre-Deux,Saint-Pierre,La Réunion,France,97410,,,97416,"29 route de l'Entre-Deux,97410,Saint-Pierre",-21.302292,55.432126,https://francearchives.fr/fr/annuaire/departements?dpt=974,C,Communes,
70,Communauté d'Agglomération Rochefort Océan - Archives Rochefort Océan,,archives@ville-rochefort.fr,05.46.82.65.88,"BP 60030, 17301 Rochefort Cedex",119 rue Pierre Loti,Rochefort,Charente-Maritime,France,17300,Lu.-Ve. 9h à 12h et 14h à 17h,https://www.ville-rochefort.fr/archives-municipales-rochefort,17299,"119 rue Pierre Loti,17300,Rochefort",45.936726,-0.962248,https://francearchives.fr/fr/annuaire/departements?dpt=17,C,Communes,
71,Communauté d'Agglomération Var Estérel Méditerranée - Service des archives,,i.pintus@cavem.fr,06.47.42.73.48,,624 chemin Aurélien,Saint-Raphaël,Var,France,83700,,,83118,"624 chemin Aurélien,83700,Saint-Raphaël",43.436856,6.772314,https://francearchives.fr/fr/annuaire/departements?dpt=83,C,Communes,
72,Communauté d'Agglomération de Cergy-Pontoise - Service archives-documentation,,guillemette.besson@cergypontoise.fr,01.34.41.92.76,"Hôtel d'agglomération, CS 80309, 95027 Cergy-Pontoise Cedex",Parvis de la Préfecture,Cergy-Pontoise,Val-d’Oise,France,95000,Lu.-Ve. 9h à 17h,,95127,"Parvis de la Préfecture,95000,Cergy-Pontoise",49.036065,2.077578,https://francearchives.fr/fr/annuaire/departements?dpt=95,C,Communes,
73,Communauté d'Agglomération de Forbach Porte de France - Service des archives,,q.hiegel@agglo-forbach.fr,07.63.76.86.74,"BP 70341, 57608 Forbach Cedex",100 rue des Moulins,Forbach,Moselle,France,57608,Sur rendez-vous,,57227,"100 rue des Moulins,57608,Forbach",49.184343,6.881189,https://francearchives.fr/fr/annuaire/departements?dpt=57,C,Communes,
74,Communauté d'Agglomération du Grand Angoulême - Service des archives,,c.phlippoteau@grandangouleme.fr,05.45.38.60.60,,17 boulevard Besson-Bey,Angoulême,Charente,France,16023,Lu.-Ve. 8h30 à 12h et 13h15 à 16h30,,16015,"17 boulevard Besson-Bey,16023,Angoulême",45.659348,0.161029,https://francearchives.fr/fr/annuaire/departements?dpt=16,C,Communes,
75,Communauté d'Agglomération du Soissonnais - Service des archives,,ccaron@agglo-soissonnais.com,03.23.54.50.28,,11 avenue François Mitterrand,Cuffies,Aisne,France,2880,,,2245,"11 avenue François Mitterrand,02880,Cuffies",49.400761,3.328778,https://francearchives.fr/fr/annuaire/departements?dpt=02,C,Communes,
76,Communauté d'agglomération Grand Paris Sud - Direction documentation et archives,,archives@grandparissud.fr,01.64.13.17.52,500 place des Champs Elysées,"9 allée de la Citoyenneté, 77127 Lieusaint",Evry-Courcouronnes,Essonne,France,91080,Lu.-Ve. 9h à 12h30 et 13h30 à 17h30,http://www.agglo-evry.fr/,91228,"9 allée de la Citoyenneté, 77127 Lieusaint",,,https://francearchives.fr/fr/annuaire/departements?dpt=91,C,Communes,
77,Communauté d'agglomération Loire Forez - Service archives-documentation,,reginepinelli@loireforez.fr,07.71.35.61.50,,17 boulevard de la Préfecture,Montbrison,Loire,France,42600,sur rendez-vous,,42147,"17 boulevard de la Préfecture,42600,Montbrison",45.608644,4.061736,https://francearchives.fr/fr/annuaire/departements?dpt=42,C,Communes,
78,Communauté d'agglomération Melun Val de Seine - Service des archives,,archives@astrolabe-melun.fr,01.64.79.25.25,,297 rue Rousseau Vaudran,Dammarie Les Lys,Seine-et-Marne,France,77190,,,77152,"297 rue Rousseau Vaudran,77190,Dammarie Les Lys",48.522193,2.651656,https://francearchives.fr/fr/annuaire/departements?dpt=77,C,Communes,
79,Communauté d'agglomération Pau-Béarn-Pyrénées - Service des archives,,archives@agglo-pau.fr,05.59.21.30.57,,"L'Usine des Tramways, avenue Gaston-Lacoste, Pont Lalanne",Pau,Pyrénées-Atlantique,France,64000,Ma.- Ve  13h à 18h,http://archives.agglo-pau.fr,64445,"L'Usine des Tramways, avenue Gaston-Lacoste, Pont Lalanne,64000,Pau",43.29286,-0.362377,https://francearchives.fr/fr/annuaire/departements?dpt=64,C,Communes,
80,Communauté d'agglomération Porte de l'Isère - Service documentation-archives,,pniarfeix@capi38.fr,04.74.96.78.85,"17 avenue du Bourg, 38081 L'Isle d'Abeau","Centre Simone Signoret, Carré Léon Blum",Villefontaine,Isère,France,38090,sur rendez-vous,,38553,"Centre Simone Signoret, Carré Léon Blum,38090,Villefontaine",45.610717,5.158511,https://francearchives.fr/fr/annuaire/departements?dpt=38,C,Communes,
81,"Communauté d'agglomération Saint-Dizier, Der et Blaise et ville de Saint-Diziers - Archives municipales",,archives@mairie-saintdizier.fr,03.25.07.31.21,,"Hôtel de ville, 18 rue de la Commune de Paris",Saint-Dizier,Haute-Marne,France,52100,sur rendez-vous,,52448,"Hôtel de ville, 18 rue de la Commune de Paris,52100,Saint-Dizier",48.635491,4.948264,https://francearchives.fr/fr/annuaire/departements?dpt=52,C,Communes,
82,Communauté d'agglomération Saint-Germain Boucles de Seine - Service des archives,,page.pierre@casgbs.fr,01.30.09.31.75,,"Parc des Erables, Bâtiment 4, 66 route de Sartrouville",Le Pecq,Yvelines,France,78230,sur rendez-vous,,78481,"Parc des Erables, Bâtiment 4, 66 route de Sartrouville,78230,Le Pecq",48.9037,2.115071,https://francearchives.fr/fr/annuaire/departements?dpt=78,C,Communes,
83,Communauté d'agglomération Saumur Val de Loire  - Service archives,,archives.ca@agglo-saumur.fr,02.41.38.62.67 ou 06.42.47.46.04,"CS 54030, 49408 Saumur Cedex",5 quai Comte Lair,Saumur,Maine-et-Loire,France,49400,sur rendez-vous,,49328,"5 quai Comte Lair,49400,Saumur",47.265751,-0.072628,https://francearchives.fr/fr/annuaire/departements?dpt=49,C,Communes,
84,Communauté d'agglomération Seine-Eure - Service des archives,,archives@seine-eure.com,02.32.50.86.36,"CS 10514, 27405 Louviers Cedex",11 A rue Charles Cros,Louviers,Eure,France,27740,Lu.-Me. 9h à 12h30 et 13h30 à 17h,,27375,"11 A rue Charles Cros,27740,Louviers",49.230027,1.17369,https://francearchives.fr/fr/annuaire/departements?dpt=27,C,Communes,
85,Communauté d'agglomération Terriroire vendômois - Service des archives,,archives-responsable@territoiresvendomois.fr,02.54.89.42.65,,"Hôtel de ville, rue Poterie",Vendôme,Loir-et-Cher,France,41100,Sur rendez-vous,,41269,"Hôtel de ville, rue Poterie,41100,Vendôme",47.792575,1.064805,https://francearchives.fr/fr/annuaire/departements?dpt=41,C,Communes,
86,Communauté d'agglomération Ventoux-Comtat Venaissin - Archives communautaires,,archives@lacove.fr,04.90.67.81.25,"BP 85, 84203 Carpentras Cedex",1171 avenue du Mont Ventoux,Carpentras,Vaucluse,France,84200,,,84031,"1171 avenue du Mont Ventoux,84200,Carpentras",44.059319,5.067539,https://francearchives.fr/fr/annuaire/departements?dpt=84,C,Communes,
87,Communauté d'agglomération d'Annemasse-les-Voirons - Service des archives,,archives@annemasse-agglo.fr,04.50.87.83.00,"B.P. 225, 74105 Annemasse Cedex",13 avenue Emile Zola,Annemasse,Haute-Savoie,France,74100,Sur rendez-vous,http://www.annemasse-agglo.fr/services-et-demarches/archives,74012,"13 avenue Emile Zola,74100,Annemasse",46.197023,6.233184,https://francearchives.fr/fr/annuaire/departements?dpt=74,C,Communes,
88,Communauté d'agglomération de Béthune Bruay Lys Romane - Service des archives,,service.archives@bethunebruay.fr,03.21.61.50.00,,100 avenue de Londres,Béthune,Pas-de-Calais,France,62400,Lu.-Ve. 8h à 18h,,62119,"100 avenue de Londres,62400,Béthune",50.516311,2.626759,https://francearchives.fr/fr/annuaire/departements?dpt=62,C,Communes,
89,Communauté d'agglomération de La Rochelle - Archives communautaires de La Rochelle,,veronique.laurent@agglo-larochelle.fr,05.46.30.34.00,"CS 41287, 17086 La Rochelle Cedex 02",9 rue Saint-Michel,La Rochelle,Charente-Maritime,France,17000,Sur rendez-vous,,17300,"9 rue Saint-Michel,17000,La Rochelle",46.159844,-1.150006,https://francearchives.fr/fr/annuaire/departements?dpt=17,C,Communes,
90,Communauté d'agglomération de Montélimar - Archives et patrimoine,,service.archives@montelimar-agglo.fr,04.75.53.79.56,,1 avenue Saint-Martin,Montélimar,Drôme,France,26200,sur rendez-vous,,26198,"1 avenue Saint-Martin,26200,Montélimar",44.561298,4.752844,https://francearchives.fr/fr/annuaire/departements?dpt=26,C,Communes,
91,Communauté d'agglomération de Nevers - Service des archives,,archives@agglo-nevers.fr,03.86.61.81.60,"CS 90041, 58027 Nevers Cedex",124 route de Marzy,Nevers,Nièvre,France,58000,Ma.-Ve. 9h à 12 h et 13h30 à 17h30 (salle de lecture mutualisée avec les Archives départementales),,58194,"124 route de Marzy,58000,Nevers",46.988185,3.119403,https://francearchives.fr/fr/annuaire/departements?dpt=58,C,Communes,
92,Communauté d'agglomération de Paris-Vallée de la Marne - Service Documentation-Archives,,archives@agglo-pvm.fr,01.60.37.24.24,"5 cours de l'Arche-Guédon, Torcy, 77207 Marne-la-Vallée Cedex 1",5 cours de l’Arche-Guédon,Torcy,Seine-et-Marne,France,77200,sur rendez-vous,,77468,"5 cours de l’Arche-Guédon,77200,Torcy",48.850112,2.636511,https://francearchives.fr/fr/annuaire/departements?dpt=77,C,Communes,
93,Communauté d'agglomération de Saint-Quentin-en-Yvelines - Service des archives,,archives2@agglo-sqy.fr,01.39.44.04.28,"BP 10118, 78192 Trappes Cedex",3 rue Jean Moulin,Guyancourt,Yvelines,France,78280,Lu.-Ve. 8h30 à 12h30 et 13h30 à 17h15,,78297,"3 rue Jean Moulin,78280,Guyancourt",48.768907,2.064536,https://francearchives.fr/fr/annuaire/departements?dpt=78,C,Communes,
94,Communauté d'agglomération de la Presqu'île de Guérande Atlantique (CAP Atlantique) - Service archives,,mailys.leyoudec@cap-atlantique.fr,02.51.75.06.80,,3 avenue des Noëlles,La Baule,Loire-Atlantique,France,44500,,,44055,"3 avenue des Noëlles,44500,La Baule",47.291261,-2.394205,https://francearchives.fr/fr/annuaire/departements?dpt=44,C,Communes,
95,Communauté d'agglomération du Bassin d'Arcachon Nord (COBAN) - Service des archives,,fredericdurand@coban-atlantique.fr,06.26.82.65.86,,46 avenue des Colonies,Andernos-les-Bains,Gironde,France,33510,,,33005,"46 avenue des Colonies,33510,Andernos-les-Bains",44.744201,-1.08567,https://francearchives.fr/fr/annuaire/departements?dpt=33,C,Communes,
96,Communauté d'agglomération du Bocage bressuirais - Service des archives,,camille.frederic@agglo2b.fr,05.49.81.19.00,,27 boulevard du Colonel Aubry,Bressuire,Deux-Sèvres,France,79300,sur rendez-vous,,79049,"27 boulevard du Colonel Aubry,79300,Bressuire",46.842143,-0.48874,https://francearchives.fr/fr/annuaire/departements?dpt=79,C,Communes,
97,Communauté d'agglomération du Grand Avignon - Service des archives,,archives@grandavignon.fr,04.90.84.47.48,"BP 1259, 84911 Avignon Cedex 9",320 chemin des Meinajariès,Avignon,Vaucluse,France,84000,sur rendez-vous,,84007,"320 chemin des Meinajariès,84000,Avignon",43.909806,4.887533,https://francearchives.fr/fr/annuaire/departements?dpt=84,C,Communes,
98,Communauté d'agglomération du Grand Chambéry - Service des archives,,archives@grandchambery.fr,04.79.68.30.75,,106 allée des Blachères,Chambéry,Savoie,France,73000,Sur rendez-vous,,73065,"106 allée des Blachères,73000,Chambéry",45.598967,5.896428,https://francearchives.fr/fr/annuaire/departements?dpt=73,C,Communes,
99,Communauté d'agglomération du Grand Châtellerault - Service des archives,,archives@grand-chatellerault.fr,05.49.23.65.10,"Hôtel de ville, CS 90618, 86106 Châtellerault Cedex",48 rue Arsène et Jean Lambert,Châtellerault,Vienne,France,86100,Lu.-Ve. 13h15 à 17h15,,86066,"48 rue Arsène et Jean Lambert,86100,Châtellerault",46.815275,0.549157,https://francearchives.fr/fr/annuaire/departements?dpt=86,C,Communes,
100,Communauté d'agglomération du Grand Cognac - Service d'accompagnement de l'archivage,,archives@grand-cognac.fr,05.17.22.31.36,"Hôtel de communauté, CS 20217, 16111 Cognac Cedex",6 rue de Valdepenas,Cognac,Charente,France,16100,Lu-Ve 9h à 12h30 et 14h à 17h,,16102,"6 rue de Valdepenas,16100,Cognac",45.680221,-0.337862,https://francearchives.fr/fr/annuaire/departements?dpt=16,C,Communes,
101,Communauté d'agglomération du Grand Narbonne - Service Archives,,b.eyles@legrandnarbonne.com,04.68.58.14.58,,12 boulevard Frédéric Mistral,Narbonne,Aude,France,11100,sur rendez-vous,,11262,"12 boulevard Frédéric Mistral,11100,Narbonne",43.185504,3.001332,https://francearchives.fr/fr/annuaire/departements?dpt=11,C,Communes,
102,Communauté d'agglomération du Grand Poitiers - Archives municipales,,sabrine.ghys@grandpoitiers.fr,05.49.30.21.50,,158 rue Blaise Pascal,Poitiers,Vienne,France,86000,Lu.-Ve. 9h à 12h et 13h30 à 17h (fermé le mardi),,86194,"158 rue Blaise Pascal,86000,Poitiers",46.562988,0.31051,https://francearchives.fr/fr/annuaire/departements?dpt=86,C,Communes,
103,Communauté d'agglomération du Grand Sénonais - Service des archives,,archives@grand-senonais.fr,03.86.95.67.19,"Hôtel de ville, CS 70809, 89108 Sens Cedex",100 rue de la République,Sens,Yonne,France,89100,Lu. / Ve. 8h30 à 12h et 14h à 17h30 / sur rendez-vous les autres jours,,89387,"100 rue de la République,89100,Sens",48.198961,3.282648,https://francearchives.fr/fr/annuaire/departements?dpt=89,C,Communes,
104,Communauté d'agglomération du Grand Verdun - Service des archives,,bbodet@grandverdun.fr,03.29.83.44.22,,"Hôtel de ville, rue du Président Poincaré",Verdun,Meuse,France,55100,sur rendez-vous,,55545,"Hôtel de ville, rue du Président Poincaré,55100,Verdun",49.158513,5.386936,https://francearchives.fr/fr/annuaire/departements?dpt=55,C,Communes,
105,Communauté d'agglomération du Niortais - Service des archives,,christele.chevalier@agglo-niort.fr,05.17.38.79.00,"CS 28770, 79027 Niort Cedex",140 rue des Equarts,Niort,Deux-Sèvres,France,79000,sur rendez-vous,,79191,"140 rue des Equarts,79000,Niort",46.318491,-0.483811,https://francearchives.fr/fr/annuaire/departements?dpt=79,C,Communes,
106,Communauté d'agglomération du Pays Voironnais - Service archives,,archivistes@paysvoironnais.com,04.76.93.17.71 ou 04.76.66.84.77,"CS 80363, 38516 Voiron Cedex","Centre technique, ZA Le Roulet, 77 impasse des Coquelicots",Voiron,Isère,France,38500,sur rendez-vous,,38563,"Centre technique, ZA Le Roulet, 77 impasse des Coquelicots,38500,Voiron",45.371516,5.575136,https://francearchives.fr/fr/annuaire/departements?dpt=38,C,Communes,
107,Communauté d'agglomération du Pays de Montbéliard - Service archives-documentation,,laurence.lasserre@agglo-montbeliard.fr,03.81.31.86.40,,8 avenue des Alliés,Montbéliard,Doubs,France,25200,Lu.-Ve. 8h30 à 17h30,,25388,"8 avenue des Alliés,25200,Montbéliard",47.512204,6.799816,https://francearchives.fr/fr/annuaire/departements?dpt=25,C,Communes,
108,Communauté d'agglomération du Pays de Saint-Omer - Service des archives anciennes,,m.becuwe@ca-pso.fr,03.74.18.21.00,,"40, rue Gambetta",Saint-Omer,Pas-de-Calais,France,62500,Ma.-Me. /  Ve.-Sa. de 9h à 12h et 13h à 18h / vacances scolaires 9h à 12h30 et 13h30 à 18h,https://www.bibliotheque-agglo-stomer.fr/cms/articleviewpreferences/libelle/Patrimoine/id_items/832/nb_aff/5/nb_analyse/10/display_order/DateCreationDesc/display_mode/Submenu/summary_content/FullContent,62765,"40, rue Gambetta,62500,Saint-Omer",50.747628,2.257683,https://francearchives.fr/fr/annuaire/departements?dpt=62,C,Communes,
109,Communauté d'agglomération du Puy-en-Velay - Service des Archives,,archives@lepuyenvelay.fr,04.71.04.04.89,"BP 50085, 43003 Le Puy-en-Velay Cedex",16 place de la Libération,Le Puy-en-Velay,Haute-Loire,France,43000,sur rendez-vous,,43157,"16 place de la Libération,43000,Le Puy-en-Velay",45.047714,3.876987,https://francearchives.fr/fr/annuaire/departements?dpt=43,C,Communes,
110,Communauté d'agglomération du Sud (CASUD) - Direction de la documentation et des archives,,service.archives@casud.re,0262.35.51.81,"379, rue Hubert Delisle, BP 437, 97430 Le Tampon",18 bis rue d'Espagne,Le Tampon,La Réunion,France,97430,,,97422,"18 bis rue d'Espagne,97430,Le Tampon",-21.280479,55.502905,https://francearchives.fr/fr/annuaire/departements?dpt=974,C,Communes,
111,Communauté d'agglomération du Territoire de la Côte Ouest (TCO) - Service des archives,,documentation@tco.re,0262.32.12.12,"BP 2020, 97822 Le Port Cedex",1 rue Eliard Laude,Le Port,Saint-Martin,France,97822,,,97407,"1 rue Eliard Laude,97822,Le Port",-20.937391,55.299891,https://francearchives.fr/fr/annuaire/departements?dpt=974,C,Communes,
112,Communauté de Jurançon - Archives communales,,archives@mairie-jurancon.fr,05.59.98.19.70,,"Hôtel de ville, 6 rue Charles de Gaulle",Jurançon,Pyrénées-Atlantique,France,64110,Lu.-Ve. 8h à 12h et 13h45 à 17h30,,64284,"Hôtel de ville, 6 rue Charles de Gaulle,64110,Jurançon",43.287332,-0.390664,https://francearchives.fr/fr/annuaire/departements?dpt=64,C,Communes,
113,Communauté de commune Coeur Côte Fleurie - Service des archives,,agnes.meurin@coeurcotefleurie.org,02.31.88.54.49,,12 rue Robert Fossorier,Deauville,Calvados,France,14800,Sur rendez-vous,,14220,"12 rue Robert Fossorier,14800,Deauville",49.360082,0.074209,https://francearchives.fr/fr/annuaire/departements?dpt=14,C,Communes,
114,Communauté de communes Le Grésivaudan - Cellule Archives-Documentation,,lscarpentier@le-gresivaudan.fr,04.76.90.57.43,,390 rue Henri Fabre,Crolles,Isère,France,38920,sur rendez-vous,,38140,"390 rue Henri Fabre,38920,Crolles",45.275095,5.896632,https://francearchives.fr/fr/annuaire/departements?dpt=38,C,Communes,
115,Communauté de communes Nièvre et Somme - Service intercommunal d'archives,,archives@nievresomme.fr,06.31.13.45.41,,118 rue du Marais,Picquigny,Somme,France,80130,sur rendez-vous,http://www.nievresomme.fr/pages/archives/,80622,"118 rue du Marais,80130,Picquigny",49.943774,2.147212,https://francearchives.fr/fr/annuaire/departements?dpt=80,C,Communes,
116,Communauté de communes Sundgau - Service des archives,,a.trommenschlager@cc-sundgau.fr,03.89.25.53.58 ou 06.66.92.25.68,,2 place du Général de Gaulle,Illfurth,Collectivité européenne d’Alsace,France,68720,Sur rendez-vous,,68152,"2 place du Général de Gaulle,68720,Illfurth",47.671269,7.263726,https://francearchives.fr/fr/annuaire/departements?dpt=68,C,Communes,
117,Communauté de communes de la vallée de Munster - Service des archives,,amechin@ville-munster68.fr,03.89.77.98.32,,"Hôtel de ville, place du Marché",Munster,Collectivité européenne d’Alsace,France,68140,Sur rendez-vous,,68226,"Hôtel de ville, place du Marché,68140,Munster",48.040813,7.137291,https://francearchives.fr/fr/annuaire/departements?dpt=68,C,Communes,
118,Communauté de communes des Pays de Sorgues et des Monts de Vaucluse - Service commun de gestion des archives,,archives@ccpsmv.fr,04.90.38.90.82,,350 avenue de la Petite Marine,L'Isle-sur-la-Sorgue,Vaucluse,France,84800,Je-Ve. 9h à 12h et de 14h à 17h sur rendez-vous,,84054,"350 avenue de la Petite Marine,84800,L'Isle-sur-la-Sorgue",43.922281,5.02476,https://francearchives.fr/fr/annuaire/departements?dpt=84,C,Communes,
119,Communauté de communes du Bassin de Joinville Champagne - Service archives-documentation,,archives-docs@ccbjc.fr,03.25.05.94.69,,3 rue des Capucins,Joinville,Haute-Marne,France,52300,Lu.-Ve. 8h30 à 12h et 13h30 à 17h,,52250,"3 rue des Capucins,52300,Joinville",48.440129,5.138156,https://francearchives.fr/fr/annuaire/departements?dpt=52,C,Communes,
120,Communauté de communes du Pays Réuni d'Orange - Archives intercommunales,,d.roux@ccpro.fr,04.88.61.92.89,"BP 20042, 84102 Orange Cedex",307 avenue de l'Arc de Triomphe,Orange,Vaucluse,France,84100,Lu.-Je. 8h30 à 12h et 13h30 à 17h,http://www.ccpro.fr/,84087,"307 avenue de l'Arc de Triomphe,84100,Orange",44.141372,4.80495,https://francearchives.fr/fr/annuaire/departements?dpt=84,C,Communes,
121,Communauté de communes du Pays de Dieulefit Bourdeaux - Service des archives,,chazaud.ccdb@orange.fr,04.75.46.82.33,,8 rue Garde de Dieu,Dieulefit,Drôme,France,26220,Lu./Je. 14h à 17h,,26114,"8 rue Garde de Dieu,26220,Dieulefit",44.526233,5.064205,https://francearchives.fr/fr/annuaire/departements?dpt=26,C,Communes,
122,Communauté de communes du Pays de Saverne - Service des archives,,archives@cc-saverne.fr,03.88.71.12.29,,16 rue du Zornhoff,Saverne,Collectivité européenne d’Alsace,France,67700,sur rendez-vous,,67437,"16 rue du Zornhoff,67700,Saverne",48.744045,7.369716,https://francearchives.fr/fr/annuaire/departements?dpt=67,C,Communes,
123,Communauté de communes du Pays des Herbiers - Service des archives,,archives@paysdesherbiers.fr,02.51.91.07.67,,6 rue du Tourniquet,Les Herbiers,Vendée,France,85500,sur rendez-vous,,85109,"6 rue du Tourniquet,85500,Les Herbiers",46.869512,-1.012996,https://francearchives.fr/fr/annuaire/departements?dpt=85,C,Communes,
124,Communauté de communes du Val d'Argent - Service intercommunal des archives,,ccva-archives@valdargent.com,03.89.58.83.45 (standard) 03.89.58.35.91 (ligne directe),,11a rue Maurice Burrus,Sainte-Croix-aux-Mines,Collectivité européenne d’Alsace,France,68160,Lu.-Ve. 8 h à 12 h et 14 h à 17 h 30 (fermé le vendredi après midi),,68294,"11a rue Maurice Burrus,68160,Sainte-Croix-aux-Mines",48.262894,7.229051,https://francearchives.fr/fr/annuaire/departements?dpt=68,C,Communes,
125,Communauté de communes du Volvestre - Service des archives,,archives@cc-volvestre.fr,09.72.29.31.58,,34 avenue de Toulouse,Carbonne,Haute-Garonne,France,31390,Sur rendez-vous,,31107,"34 avenue de Toulouse,31390,Carbonne",43.299757,1.224997,https://francearchives.fr/fr/annuaire/departements?dpt=31,C,Communes,
126,Communauté de l'Auxerrois et Ville d'Auxerre - Service des archives,FRAC89024,archives@auxerre.com,03.86.72.43.18,"BP 70059, 89012 Auxerre Cedex",14 place de l'Hôtel de ville,Auxerre,Yonne,France,89000,sur rendez-vous,https://archives.auxerre.fr/,89024,"14 place de l'Hôtel de ville,89000,Auxerre",47.796165,3.570203,https://francearchives.fr/fr/annuaire/departements?dpt=89,C,Communes,
127,Communauté urbaine Angers Loire Métropole et Ville d'Angers - Service archives vivantes,,archives@angersloiremetropole.fr,02.41.05.50.35,"BP 80011, 49020 Angers Cedex 02",83 rue du Mail,Angers,Maine-et-Loire,France,49000,Lu.-Ve. 9h à 12h30 et de 14h à 17h30,,49007,"83 rue du Mail,49000,Angers",47.4719,-0.547983,https://francearchives.fr/fr/annuaire/departements?dpt=49,C,Communes,
128,Communauté urbaine de Caen la mer - Service des archives,,dc.archives@caenlamer.fr,02.31.30.41.11,"16 rue Rosa Parks, CS 52700, 14027 Caen Cedex 10",3 impasse Lebailly,Caen,Calvados,France,14000,Me.-Je. 9h30 à 12h30 et 14h à 17h,,14118,"3 impasse Lebailly,14000,Caen",49.181867,-0.374607,https://francearchives.fr/fr/annuaire/departements?dpt=14,C,Communes,
129,Communauté urbaine du Grand Paris Seine-et-Oise,- Service des archives,pole-archives@gpseo.fr,01.30.98.17.01,"ZI des Chevries - Immeuble Autoneum, 78410 Aubergenville",rue des Pierrettes,Magnanville,Yvelines,France,78200,Lu.-Ve. 9h à 12h30 et de 14h à 18h,,78354,"rue des Pierrettes,78200,Magnanville",48.977174,1.696003,https://francearchives.fr/fr/annuaire/departements?dpt=78,C,Communes,
130,Commune Pont-de-Claix - Service archives-documentation,,archives@ville-pontdeclaix.fr,04.76.29.80.12,"CS 30001, 38801 Le Pont-de-Claix Cedex",4 avenue du Maquis de l'Oisans,Le Pont-de-Claix,Isère,France,38800,Ma. / Je. 8h30 à 12h et 13h30 à 16h30,,38317,"4 avenue du Maquis de l'Oisans,38800,Le Pont-de-Claix",45.122833,5.698517,https://francearchives.fr/fr/annuaire/departements?dpt=38,C,Communes,
131,Commune d'Abbeville - Archives municipales,,archives@ville-abbeville.fr,03.22.99.90.84,"BP 20010, 80101 Abbeville Cedex","Hôtel d'Emonville, 26 place Clemenceau",Abbeville,Somme,France,80100,Ma.-Sa. de 14h à 18h,,80001,"Hôtel d'Emonville, 26 place Clemenceau,80100,Abbeville",50.109198,1.834992,https://francearchives.fr/fr/annuaire/departements?dpt=80,C,Communes,
132,Commune d'Agde - Service des Archives,,archives@ville-agde.fr,04.67.94.60.80,"Mairie, CS 20007, 34306 Agde Cedex","Mairie, rue Alsace Lorraine",Agde,Hérault,France,34300,Lu.-Ve. 8h30 à 12h30 et 13h30 à 17h30,,34003,"Mairie, rue Alsace Lorraine,34300,Agde",43.314464,3.479296,https://francearchives.fr/fr/annuaire/departements?dpt=34,C,Communes,
133,Commune d'Agen - Archives municipales,,archives@agen.fr,05.53.99.36.14,"Mairie, BP 30003, 47916 Agen Cedex 9",rue de Contensou,Agen,Lot-et-Garonne,France,47000,Lu.-Ve. 8h30 à 12h et 13h30 à 17h,,47001,"rue de Contensou,47000,Agen",44.207728,0.615332,https://francearchives.fr/fr/annuaire/departements?dpt=47,C,Communes,
134,Commune d'Aire-sur-la-Lys - Archives municipales,,v.goblet@ville-airesurlalys.fr,03.21.95.40.42,,"Bibliothèque municipale, Hôtel de ville, Grand Place",Aire-sur-la-Lys,Pas-de-Calais,France,62120,sur rendez-vous,,62014,"Grand Place,62120,Aire-sur-la-Lys",,,https://francearchives.fr/fr/annuaire/departements?dpt=62,C,Communes,
135,Commune d'Aix-en-Provence - Archives municipales,,archiv@mairie-aixenprovence.fr,04.88.71.74.20,"Hôtel de Ville, 13616 Aix-en-Provence Cedex 1",25 allée de Philadelphie,Aix-en-Provence,Bouches-du-Rhône,France,13100,Ma.-Sa.13h à 18h (sur réservation préalable le samedi),http://aix.arkotheque.fr/article.php?laref=1,13001,"25 allée de Philadelphie,13100,Aix-en-Provence",43.527146,5.438893,https://francearchives.fr/fr/annuaire/departements?dpt=13,C,Communes,
136,Commune d'Aix-les-Bains/Grand Lac - Archives municipales,,archives@aixlesbains.fr,04.79.61.40.84,,2 rue Lamartine,Aix-les-Bains,Savoie,France,73100,Lu.-Ve. 8h30 à 12h et 13h30 à 17h30,,73008,"2 rue Lamartine,73100,Aix-les-Bains",45.690806,5.915113,https://francearchives.fr/fr/annuaire/departements?dpt=73,C,Communes,
137,Commune d'Albi - Archives municipales,,archives.municipales@mairie-albi.fr,05.63.46.46.50,"Mairie, 16 place de l'Hôtel de ville, 81023 Albi Cedex 9",25 rue Jean Rostand,Albi,Tarn,France,81000,Ma et Je. 8h30 à 12h et 13h30 à 17h30 / Me. 8h30 à 12h,,81004,"25 rue Jean Rostand,81000,Albi",43.926492,2.175329,https://francearchives.fr/fr/annuaire/departements?dpt=81,C,Communes,
138,Commune d'Alençon - Archives municipales,,archives.municipales@ville-alencon.fr,02.33.32.89.15,"CS 50362, 61014 Alençon",15 rue Jullien,Alençon,Orne,France,61000,Lu.-Ve.13h30 à 17h30 (sur rendez-vous le matin),http://www.alencon.fr/mes-sortiesmon-temps-libre/archives/,61001,"15 rue Jullien,61000,Alençon",48.432542,0.08297,https://francearchives.fr/fr/annuaire/departements?dpt=61,C,Communes,
139,Commune d'Alfortville - Archives municipales,,archives@mairie-alfortville.fr,01.58.73.27.74,"Hôtel de ville, BP 75, 94142 Alfortville Cedex",Place François Mitterrand,Alfortville,Val-de-Marne,France,94140,Lu.-Je 8h45 à 12h et de 13h30 à 17h30 / Ve. 9h à 12h et de 13h30 à 16h30,,94002,"Place François Mitterrand,94140,Alfortville",48.805137,2.419726,https://francearchives.fr/fr/annuaire/departements?dpt=94,C,Communes,
140,Commune d'Allauch - Archives municipales,,g.bayeul@allauch.com,04.91.10.48.00,"Mairie, BP 27, 13718 Allauch Cedex",place Pierre Bellot,Allauch,Bouches-du-Rhône,France,13190,Lu.-Ve. 8h30 à 12h et 14h à 18h,,13002,"place Pierre Bellot,13190,Allauch",43.336245,5.481913,https://francearchives.fr/fr/annuaire/departements?dpt=13,C,Communes,
141,Commune d'Alès - Archives municipales,,archives@ville-ales.fr,04.66.54.32.20,"Mairie, BP 345, 30115 Alès Cedex",4 boulevard Gambetta,Alès,Gard,France,30115,Ma.-Ve. 13h à 17h,https://www.ales.fr/territoire/decouvrir/archives-municipales-dales/,30007,"4 boulevard Gambetta,30115,Alès",44.121761,4.084821,https://francearchives.fr/fr/annuaire/departements?dpt=30,C,Communes,
142,Commune d'Amboise - Archives municipales,,archives@ville-amboise.fr,02.47.23.47.76,"BP 247, 37402 Amboise Cedex",60 rue de la Concorde,Amboise,Indre-et-Loire,France,37400,Ma. / Je. 13h30 à 17h30 ou sur rendez-vous,,37003,"60 rue de la Concorde,37400,Amboise",47.413209,0.984493,https://francearchives.fr/fr/annuaire/departements?dpt=37,C,Communes,
143,Commune d'Ambérieu-en-Bugey - Service des archives,,lauriane.canova@mairie-amberieuenbugey.fr,04.74.46.17.00,,"Hôtel de ville, place Robert Marcelpoil",Ambérieu-en-Bugey,Ain,France,1500,Sur rendez-vous,,1004,"Hôtel de ville, place Robert Marcelpoil,01500,Ambérieu-en-Bugey",45.958113,5.359405,https://francearchives.fr/fr/annuaire/departements?dpt=01,C,Communes,
144,Commune d'Amiens - Service des archives,,service.archives@amiens-metropole.com,03.22.97.30.40,"BP 2720, 80027 Amiens Cedex 1",50 rue Riolan,Amiens,Somme,France,80020,Lu.-Ve. 13h30 à 17h,http://www.amiens.fr/archives/,80021,"50 rue Riolan,80020,Amiens",49.889436,2.312856,https://francearchives.fr/fr/annuaire/departements?dpt=80,C,Communes,
145,Commune d'Angers - Service archives patrimoniales,,gilles.neau@ville.angers.fr,02.41.05.42.81,"Mairie, BP 80011, 49020 Angers Cedex 02",Boulevard de la Résistance et de la Déportation,Angers,Maine-et-Loire,France,49000,Lu.-Ve. 14h à 17h,http://archives.angers.fr/,49007,"49100, Angers",,,https://francearchives.fr/fr/annuaire/departements?dpt=49,C,Communes,
146,Commune d'Anglet - Service des archives,,e.sempe@anglet.fr,05.59.03.03.34,"BP 303, 64603 Anglet Cedex","Hôtel de ville, rue Amédée Dufourg",Anglet,Pyrénées-Atlantique,France,64600,sur rendez-vous,,64024,"Hôtel de ville, rue Amédée Dufourg,64600,Anglet",43.481205,-1.515003,https://francearchives.fr/fr/annuaire/departements?dpt=64,C,Communes,
147,Commune d'Angoulême - Archives municipales,,archives_municipales@mairie-angouleme.fr,05.45.38.91.97,,33 avenue Jules Ferry,Angoulême,Charente,France,16000,Ma.-Je. 9h à 12h et 13h30 à 17h,https://maam.angouleme.fr/archives-municipales/,16015,"33 avenue Jules Ferry,16000,Angoulême",45.645212,0.153757,https://francearchives.fr/fr/annuaire/departements?dpt=16,C,Communes,
148,Commune d'Annecy - Archives municipales,,archivesmunicipales@ville-annecy.fr,04.50.33.87.79,"Hôtel de ville, BP 2305, 74011 Annecy Cedex",3 rue du 27e BCA,Annecy,Haute-Savoie,France,74000,Lu.-Ve. 9h à 12h et 13h à 17h,http://www.annecy.fr/46-les-archives-municipales.htm,74010,"3 rue du 27e BCA,74000,Annecy",45.908619,6.124977,https://francearchives.fr/fr/annuaire/departements?dpt=74,C,Communes,
149,Commune d'Annemasse - Archives municipales,,service.archives@annemasse.fr,04.50.95.07.00,"BP 530, 74107 Annemasse Cedex","Mairie d'Annemasse,  Place de l'Hôtel de Ville",Annemasse,Haute-Savoie,France,74100,Sur rendez-vous,https://www.annemasse.fr/au-quotidien/culture-/-memoire/memoire-et-patrimoine/archives-municipales,74012,"Mairie d'Annemasse,  Place de l'Hôtel de Ville,74100,Annemasse",46.192855,6.233824,https://francearchives.fr/fr/annuaire/departements?dpt=74,C,Communes,
150,Commune d'Annonay - Archives municipales,,s-archives@annonay.fr,04.75.32.57.26,"Mairie d’Annonay,  BP 133, 07104 Annonay Cedex",rue Jean-Joseph Besset,Annonay,Ardèche,France,7100,sur rendez-vous,http://www.mairie-annonay.fr/-Les-archives-municipales-.html,7010,"rue Jean-Joseph Besset,07100,Annonay",45.249627,4.668511,https://francearchives.fr/fr/annuaire/departements?dpt=07,C,Communes,
151,Commune d'Antibes Juan-les-Pins - Service archives-documentation,,archives@ville-antibes.fr,04.92.90.54.10,"Archives municipales, Cours Masséna, BP 2205, 06604 Antibes cedex",12 rue du Général Andréossy,Antibes,Alpes-Maritimes,France,6600,Lu. - Ve. 8h30 à 12h et 14h à 17h,https://archives.ville-antibes.fr/,6004,"12 rue du Général Andréossy,06600,Antibes",43.582593,7.125853,https://francearchives.fr/fr/annuaire/departements?dpt=06,C,Communes,
152,Commune d'Antony - Service Archives-documentation,,archives_documentation@ville-antony.fr,01.40.96.73.03,"Mairie, BP 60086, 92161 Antony Cedex","Mairie, place de l'Hôtel de Ville",Antony,Hauts-de-Seine,France,92160,sur rendez-vous,http://www.ville-antony.fr/archives-communales,92002,"Mairie, place de l'Hôtel de Ville,92160,Antony",48.753453,2.296556,https://francearchives.fr/fr/annuaire/departements?dpt=92,C,Communes,
153,Commune d'Apt - Archives municipales,,archives@apt.fr,04.90.74.56.64,"Hôtel de ville, BP 171, 84405 Apt Cedex","Médiathèque, place Carnot",Apt,Vaucluse,France,84400,Ma.10h à 12h et 13h30 à 17h / Je. 14h à 17h / Ve. 9h à 12h,,84003,"Médiathèque, place Carnot,84400,Apt",43.87659,5.396779,https://francearchives.fr/fr/annuaire/departements?dpt=84,C,Communes,
154,Commune d'Arcachon - Service des Archives,,archives@ville-arcachon.fr,05.56.54.85.48,"Mairie,  CS 90133, 33311 Arcachon Cedex","Maison des Associations, 51 cours Tartas",Arcachon,Gironde,France,33311,Lu./Je. sur rendez-vous / Ma.-Me. 13h30 à 17h,,33009,"Maison des Associations, 51 cours Tartas,33311,Arcachon",44.660679,-1.173982,https://francearchives.fr/fr/annuaire/departements?dpt=33,C,Communes,
155,Commune d'Arcueil - Service archives-documentation,,archivesdoc@mairie-arcueil.fr,01.46.15.08.87,,"Hôtel de ville, 10 avenue Paul Doumer",Arcueil,Val-de-Marne,France,94110,Lu.-Ve. 9h à 17h30,,94003,"Hôtel de ville, 10 avenue Paul Doumer,94110,Arcueil",48.806329,2.337137,https://francearchives.fr/fr/annuaire/departements?dpt=94,C,Communes,
156,Commune d'Argentan - Archives municipales,,archives.municipales@argentan.fr,02.33.36.40.00,"Hôtel de ville, BP 60203, 61201 Argentan Cedex",Place du Dr Couinaud,Argentan,Orne,France,61200,Lu.-Ve. de 14h à 17h,,61006,"Place du Dr Couinaud,61200,Argentan",48.744074,-0.016964,https://francearchives.fr/fr/annuaire/departements?dpt=61,C,Communes,
157,Commune d'Argentat - Archives municipales,,frederic.pesteil@argentat-sur-dordogne.fr,05.55.28.10.91,,"Mairie, avenue Pasteur",Argentat,Corrèze,France,19400,Sur rendez-vous,,19010,"Mairie, avenue Pasteur,19400,Argentat",45.093412,1.936231,https://francearchives.fr/fr/annuaire/departements?dpt=19,C,Communes,
158,Commune d'Argenteuil - Archives municipales,,archives@ville-argenteuil.fr,01.34.23.68.05,"Hôtel de ville, BP 721, 95107 Argenteuil Cedex","Médiathèque Elsa Triolet et Aragon, 12-14 boulevard Léon Feix",Argenteuil,Val-d’Oise,France,95100,Ma.-Ve. 8h30 à 12h30 et 13h30 à 17h,,95018,"Médiathèque Elsa Triolet et Aragon, 12-14 boulevard Léon Feix,95100,Argenteuil",48.94691,2.249245,https://francearchives.fr/fr/annuaire/departements?dpt=95,C,Communes,
159,Commune d'Arles - Archives communales,,servicedesarchives@ville-arles.fr,04.90.49.38.74,"Hôtel de ville, BP 196, 13637 Arles Cedex","place Félix Rey, Espace Van Gogh",Arles,Bouches-du-Rhône,France,13637,Lu./Me. 8h à 17h30 / Ma./Ve. 13h30 à 17h30,http://www.ville-arles.fr/culture-tourisme/archives-communales,13004,"place Félix Rey, Espace Van Gogh,13637,Arles",43.675799,4.626001,https://francearchives.fr/fr/annuaire/departements?dpt=13,C,Communes,
160,Commune d'Armentières - Archives communales,,archives@ville-armentieres.fr,03.61.76.20.97,"BP 20119, 59427 Armentières Cedex","Hôtel de ville, place du Général de Gaulle",Armentières,Nord,France,59280,Ma.-Ve. 9h à 12h sur rendez-vous l'après midi / Sa. 9h à 11h30,http://www.archives.armentieres.fr/,59017,"Hôtel de ville, place du Général de Gaulle,59280,Armentières",50.686549,2.881634,https://francearchives.fr/fr/annuaire/departements?dpt=59,C,Communes,
161,Commune d'Asnières-sur-Seine - Service des archives,,archives@mairieasnieres.fr,01.41.11.14.95 ou 17.21,"Mairie, BP 20217, 92602 Asnières-sur-Seine Cedex",1 place de l'Hôtel de Ville,Asnières-sur-Seine,Hauts-de-Seine,France,92600,Lu.-Ve. 13h30 à 17h30,,92004,"1 place de l'Hôtel de Ville,92600,Asnières-sur-Seine",48.910692,2.288989,https://francearchives.fr/fr/annuaire/departements?dpt=92,C,Communes,
162,Commune d'Aubagne - Archives municipales,,archives@aubagne.fr,04.42.18.18.87,"Mairie d'Aubagne 
Service des archives municipales
BP 41465
13785 Aubagne CEDEX","Mairie annexe, 2 rue de la Liberté",Aubagne,Bouches-du-Rhône,France,13400,Sur rendez-vous,,13005,"Mairie annexe, 2 rue de la Liberté,13400,Aubagne",43.292128,5.569246,https://francearchives.fr/fr/annuaire/departements?dpt=13,C,Communes,
163,Commune d'Aubervilliers - Service archives-documentation,,archives@mairie-aubervilliers.fr,01.48.39.52.89,,31-33 rue de la Commune de Paris,Aubervilliers,Seine-Saint-Denis,France,93300,Lu.-Ve. 8h45 à 16h45,http://archives.aubervilliers.fr,93001,"31-33 rue de la Commune de Paris,93300,Aubervilliers",48.912332,2.381259,https://francearchives.fr/fr/annuaire/departements?dpt=93,C,Communes,
164,Commune d'Aulnay-sous-Bois - Archives municipales,,archives@aulnay-sous-bois.com,01.48.79.62.51,"Hôtel de ville, BP 56, 93602 Aulnay-sous-Bois Cedex","Hôtel de ville, place de l'Hôtel de ville",Aulnay-sous-Bois,Seine-Saint-Denis,France,93600,Ma. 9h à 12h et 14h à 17h / Je.14h à 17h et sur rendez-vous,https://aulnaysousbois.fr/mes-loisirs/histoire-et-patrimoine/archives-municipales/,93005,"Hôtel de ville, place de l'Hôtel de ville,93600,Aulnay-sous-Bois",48.934099,2.499826,https://francearchives.fr/fr/annuaire/departements?dpt=93,C,Communes,
165,Commune d'Auray - Archives municipales,,archives@ville-auray.fr,02.97.24.01.18,,1 place du Gohlérès,Auray,Morbihan,France,56400,Ma.-Je.-Ve. 9h30 à 12h30  / Me. 13h30 à 17h30,,56007,"1 place du Gohlérès,56400,Auray",47.665657,-2.988311,https://francearchives.fr/fr/annuaire/departements?dpt=56,C,Communes,
166,Commune d'Aurillac - Service archives et documentation,,archives@aurillac.fr,04.71.45.46.63,"Mairie, BP 509, 15005 Aurillac Cedex","Mairie, 18 rue de la Coste",Aurillac,Cantal,France,15000,Lu.-Ve. 9h à 12h et de 13h30 à 17h,,15014,"Mairie, 18 rue de la Coste,15000,Aurillac",44.930822,2.444643,https://francearchives.fr/fr/annuaire/departements?dpt=15,C,Communes,
167,Commune d'Avallon - Archives municipales,,archivesavallon@orange.fr,03.86.33.28.58,17 rue du Bel Air,"BP 167, 89206 Avallon Cedex",Avallon,Yonne,France,89200,sur rendez-vous,,89025,"BP 167, 89206 Avallon Cedex,89200,Avallon",47.487443,3.916561,https://francearchives.fr/fr/annuaire/departements?dpt=89,C,Communes,
168,Commune d'Avignon - Archives municipales,,archives.municipales@mairie-avignon.com,04.90.86.53.12,,6 rue Saluces,Avignon,Vaucluse,France,84000,Lu.-Ve. 8h30 à 12h et 13h30 à 17h (Lu. ouverture à 10 h).,http://archives.avignon.fr/,84007,"6 rue Saluces,84000,Avignon",43.949941,4.810598,https://francearchives.fr/fr/annuaire/departements?dpt=84,C,Communes,
169,Commune d'Eaubonne - Archives municipales,,archives@eaubonne.fr,01.34.27.33.51,,"Mairie, 1 rue d'Enghien",Eaubonne,Val-d’Oise,France,95600,Lu.-Ve. 8h45 à 12h30 et 13h30 à 17h (fermé Je. matin),,95203,"Mairie, 1 rue d'Enghien,95600,Eaubonne",48.990957,2.278984,https://francearchives.fr/fr/annuaire/departements?dpt=95,C,Communes,
170,Commune d'Elancourt - Archives communales,,angelique.ceconi@ville-elancourt.fr,01.30.66.50.81,,"Hôtel de ville, place du Général de Gaulle",Elancourt,Yvelines,France,78990,sur rendez-vous,,78208,"Hôtel de ville, place du Général de Gaulle,78990,Elancourt",48.768201,1.948041,https://francearchives.fr/fr/annuaire/departements?dpt=78,C,Communes,
171,Commune d'Embrun - Archives communales,,archives@ville-embrun.fr,04.92.44.30.87,"Hôtel de Ville, BP 97, 05200 Embrun",rue de Lattre de Tassigny,Embrun,Hautes-Alpes,France,5200,Ma.-Ve. 8h à 12h et 14h à 17h30,,5046,"rue de Lattre de Tassigny,05200,Embrun",44.563766,6.497719,https://francearchives.fr/fr/annuaire/departements?dpt=05,C,Communes,
172,Commune d'Epernay - Archives municipales,,archives@ville-epernay.fr,03.26.55.72.00,,79 rue des Jancelins,Epernay,Marne,France,51200,Lu.-Ve. 13h30 à 17h,http://www.epernay.fr/equipement-service-municipal/les-archives-municipales,51230,"79 rue des Jancelins,51200,Epernay",49.038231,3.957345,https://francearchives.fr/fr/annuaire/departements?dpt=51,C,Communes,
173,Commune d'Epinal - Archives municipales,,archives.municipales@epinal.fr,03.29.64.16.25,"Hôtel de ville, BP 25, 88026 Epinal Cedex 09",20 rue d'Ambrail,Epinal,Vosges,France,88000,Lu.-Ve. 8h30 à 12h et 13h30 à 17h,,88160,"20 rue d'Ambrail,88000,Epinal",48.174006,6.452744,https://francearchives.fr/fr/annuaire/departements?dpt=88,C,Communes,
174,Commune d'Epinay-sous-Sénart - Service des archives,,doc@ville-epinay-senart.fr,01.60.47.85.45,,"Hôtel de ville, 8 rue de Sainte-Geneviève",Epinay-sous-Sénart,Essonne,France,91860,sur rendez-vous,,91215,"Hôtel de ville, 8 rue de Sainte-Geneviève,91860,Epinay-sous-Sénart",48.69468,2.514825,https://francearchives.fr/fr/annuaire/departements?dpt=91,C,Communes,
175,Commune d'Epinay-sur-Seine - Archives communales,,laurie.coppin@epinay-sur-seine.fr,01.49.71.98.18,,1 rue Mulot,Epinay-sur-Seine,Seine-Saint-Denis,France,93800,Lu.-Ve. 8h30 à 12h et 13h30 à 17h 30 (16 h le Ve.),,93031,"1 rue Mulot,93800,Epinay-sur-Seine",48.952433,2.310393,https://francearchives.fr/fr/annuaire/departements?dpt=93,C,Communes,
176,"Commune d'Etampes - Direction des Affaires culturelles, du Patrimoine, des Archives et des Jumelages",,archives.municipales@mairie-etampes.fr,01.64.94.85.07,"BP 109, 91152 Etampes Cedex",4 rue Sainte-Croix,Etampes,Essonne,France,91150,sur rendez-vous,,91223,"4 rue Sainte-Croix,91150,Etampes",48.435658,2.161053,https://francearchives.fr/fr/annuaire/departements?dpt=91,C,Communes,
177,Commune d'Evreux - Archives communales et intercommunales,,archives@epn-agglo.fr,02.32.78.85.46,"CS 70186, 27000 Evreux","Espace Saint-Louis, 15 rue Saint-Louis",Evreux,Eure,France,27000,Ma.-Ve. 9h à 12h30 et 13h30 à 17h,,27229,"Espace Saint-Louis, 15 rue Saint-Louis,27000,Evreux",49.026864,1.152822,https://francearchives.fr/fr/annuaire/departements?dpt=27,C,Communes,
178,Commune d'Evry-Courcouronnes - Archives municipales,,archives@evrycourcouronnes.fr,01.69.36.66.66,,Place des droits de l'homme et du citoyen,Evry,Essonne,France,91000,Lu-Sa. sur rendez-vous / Jeudi 9h à 17 h (19h hors crise sanitaire),,91228,"Place des droits de l'homme et du citoyen,91000,Evry",,,https://francearchives.fr/fr/annuaire/departements?dpt=91,C,Communes,
179,Commune d'Herblay sur Seine - Service des archives,,archives@herblay.fr,01.30.40.37.50,"43 rue du Général de Gaulle, 95220 Herblay Sur Seine Cedex","Centre technique municipal, 15 avenue Paul Langevin",Herblay,Val-d’Oise,France,95220,Lu .Ma. Je. 8h30 à 12h30 et 13h30 à 17h30,,95306,"Centre technique municipal, 15 avenue Paul Langevin,95220,Herblay",49.00645,2.168297,https://francearchives.fr/fr/annuaire/departements?dpt=95,C,Communes,
180,Commune d'Hérouville-Saint-Clair - Service archives et documentation,,eneveux@herouville.net,02.31.45.33.11,"BP 9, 14201 Hérouville-Saint-Clair Cedex",Place François Mitterrand,Hérouville-Saint-Clair,Calvados,France,14200,Lu.-Ve. 9h à 12h et 13h à 17h,,14327,"Place François Mitterrand,14200,Hérouville-Saint-Clair",49.202998,-0.33333,https://francearchives.fr/fr/annuaire/departements?dpt=14,C,Communes,
181,Commune d'Illkirch-Graffenstaden - Service archives-documentation,,documentation@illkirch.eu,03.88.66.80.13,,"Hôtel de Ville, 181 route de Lyon",Illkirch-Graffenstaden Cedex,Collectivité européenne d’Alsace,France,67401,Lu.-Ve. 8h30 à 12h et 13h30 à 17h30 (17h le Ve.),,67218,"Hôtel de Ville, 181 route de Lyon,67401,Illkirch-Graffenstaden Cedex",48.528722,7.711041,https://francearchives.fr/fr/annuaire/departements?dpt=67,C,Communes,
182,Commune d'Illzach - Service des archives et de la documentation,,archives@mairie-illzach.fr,03.89.62.67.38,"Mairie, BP 10009, 68111 Illzach Cedex","9, place de la République",Illzach,Collectivité européenne d’Alsace,France,68110,Lu.-Ve. 9h30 à 12h et 13h30 à 17h30,,68154,"9, place de la République,68110,Illzach",47.781604,7.346944,https://francearchives.fr/fr/annuaire/departements?dpt=68,C,Communes,
183,Commune d'Irigny - Archives communales,,archives@irigny.fr,04.72.30.51.76,,"Mairie, 7 avenue Bézange",Irigny,Rhône,France,69540,Ma. 8h à 12h  / Je. 13h30 à 17h / Ve. 13h30 à 15h,,69100,"Mairie, 7 avenue Bézange,69540,Irigny",45.672868,4.822505,https://francearchives.fr/fr/annuaire/departements?dpt=69,C,Communes,
184,Commune d'Issoire - Service archives-documentation,,archives@capissoire.fr,04.73.89.03.54,,2 rue Eugène Gauttier,Issoire,Puy-de-Dôme,France,63500,Lu.-Ve. 9h à 12h et 13h30 à 16h30,http://archives.issoire.fr/,63178,"2 rue Eugène Gauttier,63500,Issoire",45.54501,3.251048,https://francearchives.fr/fr/annuaire/departements?dpt=63,C,Communes,
185,Commune d'Issoudun - Archives municipales,,archives@issoudun.fr,02.54.21.61.43,"Médiathèque Albert-Camus, BP 150, 36105 Issoudun",Avenue de Bel Air,Issoudun,Indre,France,36105,Ma.-Ve. 14h à 18h / Sa. 10h à 17h,,36088,"Avenue de Bel Air,36105,Issoudun",46.940832,1.998671,https://francearchives.fr/fr/annuaire/departements?dpt=36,C,Communes,
186,Commune d'Istres - Archives municipales,,archives@istres.fr,04.42.55.52.83,"Hôtel de ville, CS 97002, 13808 Istres cedex",1 allée de Vauranne,Istres,Bouches-du-Rhône,France,13800,Sur rendez-vous,,13047,"1 allée de Vauranne,13800,Istres",43.510142,4.98522,https://francearchives.fr/fr/annuaire/departements?dpt=13,C,Communes,
187,Commune d'Ivry-sur-Seine - Service des archives,,archives@ivry94.fr,01.49.60.25.19,,Esplanade Georges Marrane,Ivry-sur-Seine,Val-de-Marne,France,94205,Lu.-Ve. 8h30 à 12h et 13h30 à 17h30 (fermé Je. après midi 17 h Ve.),https://www.ivry94.fr/495/archives-municipales-que-trouver-aux-archives.htm,94041,"Esplanade Georges Marrane,94205,Ivry-sur-Seine",48.812041,2.388115,https://francearchives.fr/fr/annuaire/departements?dpt=94,C,Communes,
188,Commune d'Olivet - Archives municipales,,lineda.hafid@olivet.fr,02.38.69.83.81,"Mairie, CS 20129, 45161 Olivet Cedex",283 rue du Général de Gaulle,Olivet,Loiret,France,45160,sur rendez-vous,,45232,"283 rue du Général de Gaulle,45160,Olivet",47.865544,1.897453,https://francearchives.fr/fr/annuaire/departements?dpt=45,C,Communes,
189,Commune d'Orange - Archives municipales,,archives@ville-orange.fr,04.90.51.38.01 ou 38.69,"Hôtel de ville, place Georges Clemenceau, BP 187, 84106 Orange Cedex",75 cours Aristide Briand,Orange,Vaucluse,France,84100,Ma.-Je. 8h30 à 12h et 13h30 à 17h,,84087,"75 cours Aristide Briand,84100,Orange",44.136535,4.805323,https://francearchives.fr/fr/annuaire/departements?dpt=84,C,Communes,
190,Commune d'Orly - Service archives-documentation,,service.documentation@mairie-orly.fr,01.48.90.20.56,,7 avenue Adrien Raynal,Orly,Val-de-Marne,France,94310,Lu.-Ve. 9h à 12h et 14h à 17h,,94054,"7 avenue Adrien Raynal,94310,Orly",48.743313,2.402136,https://francearchives.fr/fr/annuaire/departements?dpt=94,C,Communes,
191,Commune d'Orléans - Service des Archives,,archives@orleans-metropole.fr,02.38.79.23.69,"Hôtel de ville, 45040 Orléans Cedex 1",5 rue Fernand Rabier,Orléans,Loiret,France,45000,Ma. / Je. 8h30 à 17h30 / Me. 13h30 à 17h30,http://archives.orleans-agglo.fr/,45234,"5 rue Fernand Rabier,45000,Orléans",47.902523,1.909747,https://francearchives.fr/fr/annuaire/departements?dpt=45,C,Communes,
192,Commune d'Orsay - Service des archives,,archives@mairie-orsay.fr,01.60.92.81.47,,"Mairie, 2 place du Général Leclerc",Orsay,Essonne,France,91400,Lu.-Me. / Ve. 8h30 à 12h et 13h30 à 17h30 / Je. 13h30 à 18h,,91471,"Mairie, 2 place du Général Leclerc,91400,Orsay",48.699031,2.187653,https://francearchives.fr/fr/annuaire/departements?dpt=91,C,Communes,
193,Commune d'Orvault - Documentation-Archives,,gdi@mairie-orvault.fr,02.51.78.31.92,"CS 70616, 44706 Orvault Cedex","Hôtel de ville, 9 rue Marcel Deniau",Orvault,Loire-Atlantique,France,44700,Lu.-Ve. 8h30 à 12h30 et 13h30 à 17h30 sur rendez-vous,,44114,"Hôtel de ville, 9 rue Marcel Deniau,44700,Orvault",47.270607,-1.624397,https://francearchives.fr/fr/annuaire/departements?dpt=44,C,Communes,
194,Commune d'Oullins - Archives communales,,cdemessieux@ville-oullins.fr,04.72.39.73.15,,Place Roger Salengro,Oullins,Rhône,France,69600,Lu./ Ve.13h30 à 17h / Ma.-Je. sur rendez-vous,,69149,"Place Roger Salengro,69600,Oullins",45.714129,4.806927,https://francearchives.fr/fr/annuaire/departements?dpt=69,C,Communes,
195,Commune d'Oyonnax - Archives municipales,,archives@oyonnax.fr,09.63.61.15.94,,"16, rue André Cretin",Oyonnax,Ain,France,1100,Sur rendez-vous,,1283,"16, rue André Cretin,01100,Oyonnax",46.266721,5.649698,https://francearchives.fr/fr/annuaire/departements?dpt=01,C,Communes,
196,Commune d'Ozoir-la-Ferrière - Service archives-documentation,,archives@mairie-ozoir-la-ferriere.fr,01.60.02.72.77,"45 avenue du Général de Gaulle, 77330 Ozoir-la-Ferrière",18 avenue Maurice Chevalier,Ozoir-la-Ferrière,Seine-et-Marne,France,77330,Lu.-Ve. 8h30 à 12h et 13h30 à 17h30,,77350,"18 avenue Maurice Chevalier,77330,Ozoir-la-Ferrière",48.765943,2.682443,https://francearchives.fr/fr/annuaire/departements?dpt=77,C,Communes,
197,Commune d'Uzès - Archives municipales,,archives@uzes.fr,04.66.22.24.40,"Hôtel de ville, BP 71103, 30701 Uzès Cedex","Ancien Evêché, rue Saint-Julien",Uzès,Gard,France,30701,Lu. / Ma. et Je. 13h30 à 16h45,,30334,"Ancien Evêché, rue Saint-Julien,30701,Uzès",,,https://francearchives.fr/fr/annuaire/departements?dpt=30,C,Communes,
198,Commune d'Yerres - Service archives documentation,,cbellelle@yerres.fr,01.69.49.77.49,"60 rue Charles de Gaulle, 91335 Yerres Cedex",22 rue du Mont-Griffon,Yerres,Essonne,France,91330,Lu.-Ve. 13h30 à 17h30 (Ve. 17h),,91691,"22 rue du Mont-Griffon,91330,Yerres",48.720201,2.492704,https://francearchives.fr/fr/annuaire/departements?dpt=91,C,Communes,
199,Commune d'Yvetot - Service des archives,,christine.renelle@yvetot.fr,02.32.70.44.70,"Mairie, BP 219, 76196 Yvetot Cedex",Place de l'Hôtel de ville,Yvetot,Seine-Maritime,France,76190,Lu.-Ve. 8h à 11h30 et 13h30 à 17h,,76758,"Place de l'Hôtel de ville,76190,Yvetot",49.616519,0.755732,https://francearchives.fr/fr/annuaire/departements?dpt=76,C,Communes,
200,Commune de Aire-sur-l'Adour - Archives municipales,,patrimoine@aire-sur-adour.fr,05.58.71.47.00,,Place de l'Hôtel de ville,Aire-sur-l’Adour,Landes,France,40800,Lu.-Ve. 9h à12h et 14h à 17h,,40001,"Place de l'Hôtel de ville,40800,Aire-sur-l’Adour",43.699974,-0.262341,https://francearchives.fr/fr/annuaire/departements?dpt=40,C,Communes,
201,Commune de Bagneux - Archives communales,,archives@mairie-bagneux.fr,01.42.31.62.18,,2 avenue Gabriel Péri,Bagneux,Hauts-de-Seine,France,92220,Lu.-Ve. 9h à 17h30 (fermé le jeudi après midi),,92007,"2 avenue Gabriel Péri,92220,Bagneux",48.79729,2.306484,https://francearchives.fr/fr/annuaire/departements?dpt=92,C,Communes,
202,Commune de Bagnolet - Service Patrimoine Archives et Arts Visuels,,cyril.bourdon@ville-bagnolet.fr,01.49.93.61.53,,"Château de l'Etang, 198 avenue Gambetta",Bagnolet,Seine-Saint-Denis,France,93170,sur rendez-vous,,93006,"Château de l'Etang, 198 avenue Gambetta,93170,Bagnolet",48.872012,2.418573,https://francearchives.fr/fr/annuaire/departements?dpt=93,C,Communes,
203,Commune de Bagnols-sur-Cèze - Archives municipales,,archives@bagnolssurceze.fr,04.66.50.50.35,"BP 45160, 30205 Bagnols-Sur-Cèze Cedex","Hôtel de ville, place Auguste Mallet",Bagnols-sur-Cèze,Gard,France,30200,"Lu.-Ve. 8h à 12h, sur rendez-vous l'après-midi",,30028,"Hôtel de ville, place Auguste Mallet,30200,Bagnols-sur-Cèze",44.162052,4.619767,https://francearchives.fr/fr/annuaire/departements?dpt=30,C,Communes,
204,Commune de Baie-Mahault - Service archives,,archives@baiemahault.fr,05.90. 41.97.51,,"Hôtel de ville, rue de la République",Baie-Mahault,Guadeloupe,France,97122,Lu.-Ma. / Je. 8h à 13h et 14h  à 17h / Me. / Ve. 7h30 à 13h,,97103,"Hôtel de ville, rue de la République,97122,Baie-Mahault",16.265614,-61.58739,https://francearchives.fr/fr/annuaire/departements?dpt=971,C,Communes,
205,Commune de Baillif - Service archives,,d.varin@ville-baillif.fr,05.90.99.11.70,"Hôtel de ville, BP 44, 97123 Baillif",Le Bourg,Baillif,Guadeloupe,France,97123,Lu.-Ma. / Je. 8h à 12h30 et 14h à 17h30 / Me./Ve. 7h30 à 13h,,97104,"Le Bourg,97123,Baillif",16.021509,-61.735714,https://francearchives.fr/fr/annuaire/departements?dpt=971,C,Communes,
206,Commune de Basse-Terre - Service archives-documentation,,v.dollin@ville-basseterre.fr,05.90.80.56.00,,2 cours Nolivos,Basse-Terre,Guadeloupe,France,97100,Lu.-Ma. / Je. 7h30 à 12h et 13h30 à 17h / Me. / Ve.7h30 à 12h30,,97105,"2 cours Nolivos,97100,Basse-Terre",15.994736,-61.730004,https://francearchives.fr/fr/annuaire/departements?dpt=971,C,Communes,
207,Commune de Bastia - Service archives-documentation,,archives@ville-bastia.fr,04.35.55.95.67,,"Hôtel de ville, avenue Pierre Giudicelli",Bastia,Corse,France,20410,Lu.-Ve. 8h à 16h30,,2B033,"Hôtel de ville, avenue Pierre Giudicelli,20410,Bastia",42.702203,9.451381,https://francearchives.fr/fr/annuaire/departements?dpt=2A,C,Communes,
208,Commune de Bayonne - Service Archives Documentation,,archives@bayonne.fr,05.59.46.60.89,"BP 60004, 64109 Bayonne Cedex","Hôtel de ville, 1 avenue du Maréchal Leclerc",Bayonne,Pyrénées-Atlantique,France,64100,sur rendez-vous,,64102,"Hôtel de ville, 1 avenue du Maréchal Leclerc,64100,Bayonne",43.493505,-1.474908,https://francearchives.fr/fr/annuaire/departements?dpt=64,C,Communes,
209,Commune de Bazas - Archives communales,,r.espagnet@ville-bazas.fr,05.56.65.06.65,,2 place de la Cathédrale,Bazas,Gironde,France,33430,sur rendez-vous,,33036,"2 place de la Cathédrale,33430,Bazas",44.431278,-0.211364,https://francearchives.fr/fr/annuaire/departements?dpt=33,C,Communes,
210,Commune de Beaucaire - Service des archives,,cyrille.vivarelli@beaucaire.fr,04.66.59.71.19,,"Mairie, place Georges Clemenceau",Beaucaire,Gard,France,30300,Lu.-Ve. 8h30 à 12h et 13h30 à 17h,,30032,"Mairie, place Georges Clemenceau,30300,Beaucaire",43.807227,4.643671,https://francearchives.fr/fr/annuaire/departements?dpt=30,C,Communes,
211,Commune de Beaune - Archives municipales,,archives@mairie-beaune.fr,03.80.24.56.81,"Hôtel de ville, B.P. 30191, 21205 Beaune Cedex",Place de l'Hôtel de ville,Beaune,Côtes-d’Or,France,21200,Lu.-Ve. 9h à 12h30 et de 13h30 à 17h,https://archivesbeaune.wordpress.com/,21054,"Place de l'Hôtel de ville,21200,Beaune",47.026225,4.839519,https://francearchives.fr/fr/annuaire/departements?dpt=21,C,Communes,
212,Commune de Beausoleil - Service archives-documentation,,archives@villedebeausoleil.fr,04.93.41.71.31,"Hôtel de ville, boulevard de la République, 06240 Beausoleil",26 avenue Maréchal Foch,Beausoleil,Alpes-Maritimes,France,6240,Lu.-Ve. 8h30 à 12h30 et 13h30 à 17h (16h le vendredi),,6012,"26 avenue Maréchal Foch,06240,Beausoleil",43.742792,7.423585,https://francearchives.fr/fr/annuaire/departements?dpt=06,C,Communes,
213,Commune de Beauvais - Service archives-documentation,,bdelaunay@beauvais.fr,03.44.79.40.29,,234 place de Saint-Just-des-Marais,Beauvais,Oise,France,60000,Lu.-Ve. 8h30 à 12h et 13h30 à 17h,,60057,"234 place de Saint-Just-des-Marais,60000,Beauvais",49.434844,2.060675,https://francearchives.fr/fr/annuaire/departements?dpt=60,C,Communes,
214,Commune de Belfort - Archives municipales,,archives@mairie-belfort.fr,03.84.54.25.44,"Hôtel de ville, place d'Armes",2 rue de l’Ancien Théâtre,Belfort,Territoire de Belfort,France,90000,Ma.-Je. 9h à 12h et 14h à 17h30,https://archives.belfort.fr/,90010,"2 rue de l’Ancien Théâtre,90000,Belfort",47.637668,6.861909,https://francearchives.fr/fr/annuaire/departements?dpt=90,C,Communes,
215,Commune de Berre-l'Etang - Archives municipales,,archives@berre-l-etang.fr,04.42.85.07.33,"Mairie, BP 30221, 13130 Berre l'Etang","42 avenue Henri Becquerel, Euroflory Parc",Berre l'Etang,Bouches-du-Rhône,France,13130,Lu.-Ve. 8h30 à 12h30 et 13h30 à 16h40,,13014,"42 avenue Henri Becquerel, Euroflory Parc,13130,Berre l'Etang",43.518682,5.192607,https://francearchives.fr/fr/annuaire/departements?dpt=13,C,Communes,
216,Commune de Besançon - Archives municipales,,archives.contemporaines@besancon.fr,03.81.87.81.40,"BP 279, 25012 Besançon Cedex",1 rue de la Bibliothèque,Besançon,Doubs,France,25000,Lu.-Sa. 10h à 18h (fermeture entre 12h et 14h le Sa.),http://memoirevive.besancon.fr,25056,"1 rue de la Bibliothèque,25000,Besançon",47.2362,6.02778,https://francearchives.fr/fr/annuaire/departements?dpt=25,C,Communes,
217,Commune de Beynes - Service des archives,,archives@beynes.fr,01.34.91.07.44,,"Mairie, place du 8 mai 1945",Beynes,Yvelines,France,78650,sur rendez-vous,,78062,"Mairie, place du 8 mai 1945,78650,Beynes",48.855825,1.875334,https://francearchives.fr/fr/annuaire/departements?dpt=78,C,Communes,
218,Commune de Blagnac - Service documentation-archives,,s.roussel@mairie-blagnac.fr,05.61.71.72.23,,place des Arts,Blagnac,Haute-Garonne,France,31700,Sur rendez-vous,,31069,"place des Arts,31700,Blagnac",43.635319,1.39838,https://francearchives.fr/fr/annuaire/departements?dpt=31,C,Communes,
219,"Commune de Bobigny - Direction des Affaires juridiques, service Archives communales",,archives@ville-bobigny.fr,01.41.60.94.94,,31 avenue du Président Salvador Allende,Bobigny,Seine-Saint-Denis,France,93000,Lu.-Ve. 8h30 à 12h30 et 13h30 à 17h30,,93008,"31 avenue du Président Salvador Allende,93000,Bobigny",48.906182,2.445042,https://francearchives.fr/fr/annuaire/departements?dpt=93,C,Communes,
220,Commune de Bois-Colombes - Service archives et patrimoine culturel,,archivesdoc@bois-colombes.com,01.41.19.83.48,,15 rue Charles Duflos,Bois-Colombes,Hauts-de-Seine,France,92270,Lu.-Ve.13h30 à 17h30,,92009,"15 rue Charles Duflos,92270,Bois-Colombes",48.914432,2.267915,https://francearchives.fr/fr/annuaire/departements?dpt=92,C,Communes,
221,Commune de Bolbec - Service archives-documentation-patrimoine,,archives.documentation@bolbec.fr,02.32.84.51.16,"BP 70045, 76210 Bolbec",Square du Général Leclerc,Bolbec,Seine-Maritime,France,76210,Je. 8h à 12h  / Ve. 14h à 17h,,76114,"Square du Général Leclerc,76210,Bolbec",49.57383,0.474445,https://francearchives.fr/fr/annuaire/departements?dpt=76,C,Communes,
222,Commune de Bollène - Archives communales,,archives@ville-bollene.fr,04.90.40.51.98,"Mairie, BP 207, 84505 Bollène Cedex",Place Raynaud de la Gardette,Bollène,Vaucluse,France,84500,sur rendez-vous,,84019,"Place Raynaud de la Gardette,84500,Bollène",44.280179,4.748183,https://francearchives.fr/fr/annuaire/departements?dpt=84,C,Communes,
223,Commune de Bondy - Service documentation-archives,,archives@ville-bondy.fr,01.48.50.53.00,,"Hôtel de ville, Esplanade Claude Fuzier",Bondy,Seine-Saint-Denis,France,93140,"Lu., Me., Ve. 9h à 17h15 / Ma. 10h30 à 17h15 et sur rendez-vous de 17h15 à 19h15",,93010,"Esplanade Claude-Fuzier, 93140, Bondy",48.9016780053603,2.4810580693133386,https://francearchives.fr/fr/annuaire/departements?dpt=93,C,Communes,
224,Commune de Bonneuil-sur-Marne - Service archives-documentation,,beatrice.dib@bonneuil94.fr,01.56.71.52.20,7 rue Estienne d'Orves,1 rue de la Commune,Bonneuil-sur-Marne,Val-de-Marne,France,94380,Ma. / Me. / Ve. 9h à 12h et de 14h à 17h,,94011,"1 rue de la Commune,94380,Bonneuil-sur-Marne",48.769998,2.484461,https://francearchives.fr/fr/annuaire/departements?dpt=94,C,Communes,
225,Commune de Boulogne-Billancourt - Archives municipales,,francoise.bedoussac@mairie-boulogne-billancourt.fr,01.55.18.42.72,,26 avenue André Morizet,Boulogne-Billancourt,Hauts-de-Seine,France,92100,Lu. / Me. / Ve. 9h à 12h et 13h30 à 17h / Ma. / Je. 13h30 - 17h,,92012,"26 avenue André Morizet,92100,Boulogne-Billancourt",48.835697,2.240418,https://francearchives.fr/fr/annuaire/departements?dpt=92,C,Communes,
226,Commune de Boulogne-Sur-Mer - Archives municipales,,archives@ville-boulogne-sur-mer.fr,03.91.90.01.10,"Hôtel de ville, BP 729, 62321 Boulogne sur Mer Cedex",11 rue de Bertinghen,Boulogne sur Mer,Pas-de-Calais,France,62200,Lu.-Ve. 8h30 à 12h et 13h30 à 17h30,,62160,"11 rue de Bertinghen,62200,Boulogne sur Mer",50.714546,1.614651,https://francearchives.fr/fr/annuaire/departements?dpt=62,C,Communes,
227,Commune de Bourg-Saint-Andéol - Service des Archives,,archives@bsa-ville.fr,04.75.54.77.45,,"Hôtel de ville, place de la Concorde",Bourg-Saint-Andéol,Ardèche,France,7700,Me. 10h à 12h,https://www.bsa-ville.fr/rubrique58.html,7042,"Hôtel de ville, place de la Concorde,07700,Bourg-Saint-Andéol",44.369065,4.646583,https://francearchives.fr/fr/annuaire/departements?dpt=07,C,Communes,
228,Commune de Bourg-en-Bresse - Service des archives,,archives@bourgenbresse.fr,04.74.45.72.07,Hôtel de Ville - BP 90419 – 01012 Bourg-en-Bresse cedex,Place de l'Hôtel de ville,Bourg-en-Bresse,Ain,France,1000,Ma.-Me. 8h30 à 12h / Je. 13h30 à 17h,http://archives.bourgenbresse.fr/,1053,"Place de l'Hôtel de ville,01000,Bourg-en-Bresse",46.204967,5.225539,https://francearchives.fr/fr/annuaire/departements?dpt=01,C,Communes,
229,Commune de Bourg-lès-Valence - Archives municipales,,idelette.drogue@bourg-les-valence.fr,04.75.79.45.39,"Espace François Mitterrand, BP 231, 26500 Bourg-lès-Valence",Rue Vidal,Bourg-lès-Valence,Drôme,France,26500,Sur rendez-vous,,26058,"Rue Vidal,26500,Bourg-lès-Valence",44.947393,4.894002,https://francearchives.fr/fr/annuaire/departements?dpt=26,C,Communes,
230,Commune de Bourges - Archives communales et communautaires,,archives.municipales@agglo-bourgesplus.fr,02.48.24.00.94,"Hôtel de ville, CS 50003, 18020 Bourges Cedex",Rue Jules Bertaut - Place François Mauriac,Bourges,Cher,France,18000,Ma / Je. 9h-12h30 et 13h30-17h,https://archives.bourgesplus.fr/,18033,"Rue Jules Bertaut - Place François Mauriac,18000,Bourges",47.102857,2.414177,https://francearchives.fr/fr/annuaire/departements?dpt=18,C,Communes,
231,Commune de Bras-Panon - Service des archives,,archives@braspanon.re,,,"Hôtel de ville, route nationale 2",Bras-Panon,La Réunion,France,97412,,,97402,"Hôtel de ville, route nationale 2,97412,Bras-Panon",-20.996373,55.679052,https://francearchives.fr/fr/annuaire/departements?dpt=974,C,Communes,
232,Commune de Bressuire - Archives municipales,,marylise.hirtz@ville-bressuire.fr,05.49.74.28.66,"Hôtel de Ville, CS 20080, 79302 Bressuire Cedex",21 allée du Lavoir,Bressuire,Deux-Sèvres,France,79300,sur rendez-vous,,79049,"21 allée du Lavoir,79300,Bressuire",46.834634,-0.479412,https://francearchives.fr/fr/annuaire/departements?dpt=79,C,Communes,
233,Commune de Brest métropole - Archives municipales et communautaires,,archives@brest-metropole.fr,02.38.34.26.10,,1 rue Jean Foucher,Brest,Finistère,France,29200,Lu.-Me. 9h à 12h et 13h à 17h,http://www.archives-brest.com,29019,"1 rue Jean Foucher,29200,Brest",48.398183,-4.506215,https://francearchives.fr/fr/annuaire/departements?dpt=29,C,Communes,
234,Commune de Briançon - Service des archives et de la documentation,FRAC005023,archives@mairie-briancon.fr,04.92.20.46.01,,"Médiathèque La Ruche, 28 avenue du 159ème RIA",Briançon,Hautes-Alpes,France,5100,Ma./ Me./ Ve. de 14h à 18h / Sa. 10h à 13h (fermé le jeudi),,5023,"Médiathèque La Ruche, 28 avenue du 159ème RIA,05100,Briançon",44.897633,6.634132,https://francearchives.fr/fr/annuaire/departements?dpt=05,C,Communes,
235,Commune de Brignais - Archives communales,,gourd@mairie-brignais.fr,04.87.25.20.01,,"Hôtel de ville, 28 rue général de Gaulle",Brignais,Rhône,France,69530,sur rendez-vous,,69027,"Hôtel de ville, 28 rue général de Gaulle,69530,Brignais",45.674861,4.759203,https://francearchives.fr/fr/annuaire/departements?dpt=69,C,Communes,
236,Commune de Brignoles - Archives municipales,,archives@brignoles.fr,04.94.69.31.87,"BP 307, 83177 Brignoles Cedex",12 place des Comtes de Provence,Brignoles,Var,France,83170,sur rendez-vous,,83023,"12 place des Comtes de Provence,83170,Brignoles",43.404216,6.061427,https://francearchives.fr/fr/annuaire/departements?dpt=83,C,Communes,
237,Commune de Bron - Service documentation et archives,,documentation@ville-bron.fr (indiquer à l'attention de M. Guillaud),04.72.36.13.28,,"Mairie, Place de Weingarten",Bron,Rhône,France,69500,Sur rendez-vous,,69029,"Mairie, Place de Weingarten,69500,Bron",45.73366,4.909219,https://francearchives.fr/fr/annuaire/departements?dpt=69,C,Communes,
238,Commune de Bruay-La-Buissière - Service des archives municipales,,archives@bruaylabuissiere.fr,03.59.41.34.03,"Maison des services, BP 23, 62701  Bruay-La-Buissière Cedex",39 rue Pierre Bérégovoy,Bruay-La-Buissière,Pas-de-Calais,France,62700,Lu.-Ve. 8h à 12h et 13h30 à 17h30 (12h le Je.),,62178,"39 rue Pierre Bérégovoy,62700,Bruay-La-Buissière",50.482233,2.546596,https://francearchives.fr/fr/annuaire/departements?dpt=62,C,Communes,
239,Commune de Brunoy - Service des archives,,archives@mairie-brunoy.fr,01.69.39.97.29,"Mairie, BP 83, 91805 Brunoy Cedex","Mairie, place de la Mairie",Brunoy,Essonne,France,91800,sur rendez-vous,,91114,"Mairie, place de la Mairie,91800,Brunoy",48.697898,2.503977,https://francearchives.fr/fr/annuaire/departements?dpt=91,C,Communes,
240,Commune de Bry-sur-Marne - Archives municipales,,v.roblin@bry94.fr,01.45.16.68.00,,1 Grande Rue Charles de Gaulle,Bry-sur-Marne,Val-de-Marne,France,94360,sur rendez-vous,,94015,"1 Grande Rue Charles de Gaulle,94360,Bry-sur-Marne",48.835224,2.519827,https://francearchives.fr/fr/annuaire/departements?dpt=94,C,Communes,
241,Commune de Buc - Service archives-documentation,,archives@mairie-buc.fr,01.39.20.71.12,,"Mairie, 3 rue des Frères Robin",Buc,Yvelines,France,78530,Lu. / Me. 8h30 à 12h et 13h à 17h / Ma. 13h à 17h / Je. 13h à 20h / Ve. 8h30 à 12h et 13h à 16h30,,78117,"Mairie, 3 rue des Frères Robin,78530,Buc",48.774054,2.126244,https://francearchives.fr/fr/annuaire/departements?dpt=78,C,Communes,
242,Commune de Buis-les-Baronnies - Archives municipales,,archives.buis@wanadoo.fr,04.75.28.23.60,"Hôtel de ville, boulevard Aristide Briand, 26170 Buis-les-Baronnies","Espace ""Pierre Varlet"", 2 rue de Beauvoisin",Buis-les-Baronnies,Drôme,France,26170,Je. 13h30 à 17h30,,26063,"Espace ""Pierre Varlet"", 2 rue de Beauvoisin,26170,Buis-les-Baronnies",44.275969,5.272643,https://francearchives.fr/fr/annuaire/departements?dpt=26,C,Communes,
243,Commune de Bègles - Archives municipales,,archives@mairie-begles.fr,05.56.49.92.69,,"Hôtel de ville, 77 rue Calixte Camelle",Bègles,Gironde,France,33130,Lu. 13h45 à 18h30 / Ma.-Ve. 8h45 à 17h (Ve. 16h30),http://www.mairie-begles.fr/?p=166,33039,"Hôtel de ville, 77 rue Calixte Camelle,33130,Bègles",44.808413,-0.543574,https://francearchives.fr/fr/annuaire/departements?dpt=33,C,Communes,
244,Commune de Bédarieux - Archives municipales,,archives-municipales@bedarieux.fr,04.67.95.73.41,"Mairie, BP 3, 34600 Bédarieux",19 avenue Abbé Tarroux,Bédarieux,Hérault,France,34600,Sur rendez-vous,,34028,"19 avenue Abbé Tarroux,34600,Bédarieux",43.617661,3.15498,https://francearchives.fr/fr/annuaire/departements?dpt=34,C,Communes,
245,Commune de Béthune - Archives municipales,,s.duquenne@ville-bethune.fr,03.21.63.00.00,"Hôtel de ville, BP 10711, 62400 Béthune Cedex",Place du 4 septembre,Béthune,Pas-de-Calais,France,62400,Lu.-Ve. 9h à 12h  et 14h à 17h,http://archives.ville-bethune.fr/,62119,"Place du 4 septembre,62400,Béthune",50.530457,2.638344,https://francearchives.fr/fr/annuaire/departements?dpt=62,C,Communes,
246,Commune de Béziers - Archives municipales,,francoise.sanchez@ville-beziers.fr,04.67.36.73.69,"Mairie, 34543 Béziers Cedex","Hôtel du Lac, 27 rue du Quatre-Septembre",Béziers,Hérault,France,34500,Ma.-Me. 8h à 12h et 13h30 à 17h30 / Je. 8h à 12h,http://archives.ville-beziers.fr/,34032,"Hôtel du Lac, 27 rue du Quatre-Septembre,34500,Béziers",43.342642,3.214014,https://francearchives.fr/fr/annuaire/departements?dpt=34,C,Communes,
247,Commune de Cachan - Service du patrimoine archives et documentation,,sylvain.gervereau@ville-cachan.fr,01.49.69.69.80 ou 30,,"Mairie, Square de la Libération",Cachan,Val-de-Marne,France,94230,Lu.-Ve. 9h à 12h30 et 13h30 à 17h30,,94016,"Mairie, Square de la Libération,94230,Cachan",48.794396638564955,2.3340556423328773,https://francearchives.fr/fr/annuaire/departements?dpt=94,C,Communes,
248,Commune de Cagnes-sur-Mer - Service des archives,,archives.municipales@cagnes.fr,04.89.83.20.66,"Mairie, place de l'Hôtel de ville","Immeuble Hermès, place Gabriel Péri",Cagnes-sur-Mer,Alpes-Maritimes,France,6800,Lu.-Ve. 8h à 12h30 et 13h30 à 17h,http://www.archives.ville-cagnes.fr/,6027,"place Gabriel Péri,06800,Cagnes-sur-Mer",,,https://francearchives.fr/fr/annuaire/departements?dpt=06,C,Communes,
249,Commune de Calais - Archives communales,,archives@mairie-calais.fr,03.21.46.62.69,"C.S. 30329, 62107 Calais Cedex",20 quai de la Gendarmerie,Calais,Pas-de-Calais,France,62100,Lu. / Me. 8h15 à 11h45 et 13h30 à 17h15 / Je. 13h30 à 17h15,,62193,"20 quai de la Gendarmerie,62100,Calais",50.951422,1.859954,https://francearchives.fr/fr/annuaire/departements?dpt=62,C,Communes,
250,Commune de Caluire-et-Cuire - Service des archives,,archives@ville-caluire.fr,04.78.98.80.80,,Place du docteur Dugoujon,Caluire-et-Cuire,Rhône,France,69300,Lu-Ve 8h30 à 12h et 13h30 à 17h,,69034,"Place du docteur Dugoujon,69300,Caluire-et-Cuire",45.796526,4.842175,https://francearchives.fr/fr/annuaire/departements?dpt=69,C,Communes,
251,Commune de Cambrai - Archives municipales,,service-archives-municipales@mairie-cambrai.fr,03.27.73.21.42,"Hôtel de ville, BP 409, 59407 Cambrai Cedex",Place Aristide Briand,Cambrai,Nord,France,59400,Sur rendez-vous,,59122,"Place Aristide Briand,59400,Cambrai",50.1754,3.234031,https://francearchives.fr/fr/annuaire/departements?dpt=59,C,Communes,
252,Commune de Cannes - Archives de Cannes - salle d'exposition,,archives@ville-cannes.fr,04.89.82.20.70,,18 rue Docteur Calmette,Cannes,Alpes-Maritimes,France,6400,,,6029,"18 rue Docteur Calmette,06400,Cannes",43.55698,7.02122,https://francearchives.fr/fr/annuaire/departements?dpt=06,C,Communes,Commune de Cannes - Archives municipales - Salle de lecture
253,Commune de Cannes - Archives municipales - Salle de lecture,FRAC06406,archives@ville-cannes.fr,04.89.82.20.60,"Mairie, CS 30140,  Cannes Cedex","Villa Montrose, 9 avenue Montrose",Cannes,Alpes-Maritimes,France,6414,Lu.-Ve. 8h30 à 17h,http://www.cannes.com/fr/culture/archives-municipales.html,6029,"Villa Montrose, 9 avenue Montrose,06414,Cannes",43.562254,7.026324,https://francearchives.fr/fr/annuaire/departements?dpt=06,C,Communes,
254,Commune de Carmaux - Archives municipales,,archives@carmaux.fr,05.63.76.09.75,,"Centre culturel, 24 avenue Bouloc-Torcatis",Carmaux,Tarn,France,81400,Ma. / Je. 14h à 18h et sur rendez-vous,https://archives.carmaux.fr/,81060,"Centre culturel, 24 avenue Bouloc-Torcatis,81400,Carmaux",44.052781,2.155872,https://francearchives.fr/fr/annuaire/departements?dpt=81,C,Communes,
255,Commune de Carpentras - Archives communales,,julie.lochanski@carpentras.fr,04.90.63.04.92,,"Bibliothèque-Musée Inguimbertine, 234 boulevard Albin Durand",Carpentras,Vaucluse,France,84200,sur rendez-vous,,84031,"Bibliothèque-Musée Inguimbertine, 234 boulevard Albin Durand,84200,Carpentras",44.054301,5.04548,https://francearchives.fr/fr/annuaire/departements?dpt=84,C,Communes,
256,"Commune de Carros - Service patrimoine, archives, documentation",,archives@ville-carros.fr,04.92.08.44.21,,"Mairie, Pôle Evénementiel, vie associative et patrimoine, Rue de l'Eusière",Carros,Alpes-Maritimes,France,6510,Lu.-Ve. 8h à 12h et 13h à 17h,,6033,"Rue de l'Eusière,06510,Carros",,,https://francearchives.fr/fr/annuaire/departements?dpt=06,C,Communes,
257,Commune de Castelnaudary - Archives municipales,,francoise.bousquet@ville-castelnaudary.fr,04.68.94.58.28,"Mairie, BP 1100, 11491 Castelnaudary Cedex","Mairie, Cours de la République",Castelnaudary,Aude,France,11400,Lu.-Ve. 8h30 à 12h et 13h30 à 17h30 (16h30 le Ve.),https://ville-castelnaudary.fr/fr/culture-et-sorties/archives,11076,"Mairie, Cours de la République,11400,Castelnaudary",43.317334,1.952579,https://francearchives.fr/fr/annuaire/departements?dpt=11,C,Communes,
258,Commune de Castres - Archives municipales,,archives@ville-castres.fr,05.63.62.41.60,"Mairie, BP 10406, 81108 Castres Cedex",2 avenue du Sidobre,Castres,Tarn,France,81100,Ma. / Je. 14h à 18h  et sur rendez-vous,,81065,"2 avenue du Sidobre,81100,Castres",43.60731,2.25219,https://francearchives.fr/fr/annuaire/departements?dpt=81,C,Communes,
259,Commune de Cavaillon - Archives municipales,,archives@ville-cavaillon.fr,04.90.71.94.38,"Mairie, BP 80037, 84301 Cavaillon Cedex","Place du Cloître, rue du Couvent",Cavaillon,Vaucluse,France,84300,Ma.-Me. / Ve. 8h30 à 12h et 13h30 à 17h,http://ville-cavaillon.com/pr%C3%A9sentation.html,84035,"Place du Cloître, rue du Couvent,84300,Cavaillon",43.83834,5.036503,https://francearchives.fr/fr/annuaire/departements?dpt=84,C,Communes,
260,Commune de Cayenne - Service des archives,,archivesmunicipales@ville-cayenne.fr,05.94.29.21.10 ou 05.94.29.25.37,,"Annexe mairie, angle boulevard Mandela et Goignet",Cayenne,Guyane,France,97300,Lu.-Ve. 8h à 13h30,,97302,"boulevard Mandela,97300,Cayenne",,,https://francearchives.fr/fr/annuaire/departements?dpt=973,C,Communes,
261,Commune de Cenon - Service documentation archives,,documentation-archives@ville-cenon.fr,05.57.80.70.41,"CS 50027, 33152 Cenon Cedex",1 avenue Carnot,Cenon,Gironde,France,33152,sur rendez-vous,,33119,"1 avenue Carnot,33152,Cenon",44.857788,-0.531034,https://francearchives.fr/fr/annuaire/departements?dpt=33,C,Communes,
262,Commune de Cergy - Service archives et documentation,,archives-municipales@ville-cergy.fr,01.34.33.44.64,"BP 48000, Cergy, 95801 Cergy-Pontoise Cedex",3 place de Olympe de Gouges,Cergy,Val-d’Oise,France,95800,sur rendez-vous,,95183,"3 place de Olympe de Gouges,95800,Cergy",49.05274546587077,2.0357323576716655,https://francearchives.fr/fr/annuaire/departements?dpt=95,C,Communes,
263,Commune de Chalon-sur-Saône - Archives municipales,,service.archives@chalonsursaone.fr,03.85.46.83.33,"Mairie, CS 70092, 71321 Chalon-sur-Saône Cedex","16 rue de la Jonchère, Zone verte",Châtenoy-le-Royal,Saône-et-Loire,France,71880,Ma. / Ve. 13h30 à 17h30 / Me. 9h à 17h30 / Je. 9h à 12h et 13h30 à 17h30,http://archives.chalon.fr/,71118,"16 rue de la Jonchère, Zone verte,71880,Châtenoy-le-Royal",,,https://francearchives.fr/fr/annuaire/departements?dpt=71,C,Communes,
264,Commune de Chamonix-Mont-Blanc - Archives municipales,,archives@chamonix.fr,04.50.54.78.56,"BP 89, 74400 Chamonix-Mont-Blanc Cedex","Hôtel de Ville, 38 place de l'Eglise",Chamonix-Mont-Blanc,Haute-Savoie,France,74400,sur rendez-vous,,74056,"Hôtel de Ville, 38 place de l'Eglise,74400,Chamonix-Mont-Blanc",45.923607,6.869157,https://francearchives.fr/fr/annuaire/departements?dpt=74,C,Communes,
265,Commune de Champigny-sur-Marne - Archives communales,,serv.archives@mairie-champigny94.fr,01.45.16.89.21,"Hôtel de ville, 14 rue Louis Talamoni, 94500 Champigny-sur-Marne",58 rue Guy Mocquet,Champigny-sur-Marne,Val-de-Marne,France,94500,Sur rendez-vous,,94017,"58 rue Guy Mocquet,94500,Champigny-sur-Marne",48.819856,2.515079,https://francearchives.fr/fr/annuaire/departements?dpt=94,C,Communes,
266,Commune de Champs-Sur-Marne - Service documentation et archives,,documentation@ville-champssurmarne.fr,01.64.73.49.09,"Hôtel de ville, BP 1, 77427 Marne la Vallée Cedex 2","Mairie, Mail Jean Ferrat",Champs-sur-Marne,Seine-et-Marne,France,77420,Lu.-Ve. 8h30 à 12h et 13h30 à 17h45,,77083,"Mail Jean Ferrat,77420,Champs-sur-Marne",,,https://francearchives.fr/fr/annuaire/departements?dpt=77,C,Communes,
